"retailer_id","name","orig_address","lat","lon","cnty","tract","GEOID"
"1015366","OLD TOWN ARCO","1 BOONE CT, DANVILLE, CA 94526",37.8142146,-121.9956732,"Contra Costa County",3452.03,"06013345203"
"181773","SAFEWAY 02-0788","1 CMNO ALTO, MILL VALLEY, CA 94941",37.8941338,-122.5313811,"Marin County",1261,"06041126100"
"554087","CIRCLE K","1 E HELLMAN AV, ALHAMBRA, CA 91801",34.0700465,-118.1223265,"Los Angeles County",4816.05,"06037481605"
"1021294","GOLD RANCH LOTTERY","1 GOLD RANCH RD, FLORISTON, CA 96111",39.5018094,-120.001038,"Sierra County",,"06091010000"
"1030467","HACIENDA SHELL","1 HACIENDA DRIVE, SCOTTS VALLEY, CA 95066",37.0629924,-122.0061266,"Santa Cruz County",1209,"06087120900"
"694279","WOODLAND VALERO","1 KENT AV, KENTFIELD, CA 94904",37.9507719,-122.5498593,"Marin County",1191,"06041119100"
"1020732","LOS PRIMOS MARKET","1 MAYFAIR DR, SALINAS, CA 93905",36.6679726,-121.6274408,"Monterey County",9,"06053000900"
"1028839","QUIK STOP #1077","1 PORTER DR, WATSONVILLE, CA 95076",36.9042932,-121.7496502,"Monterey County",101.01,"06053010101"
"1034205","QUIK STOP #9077","1 PORTER DR, WATSONVILLE, CA 95076",36.9042932,-121.7496502,"Monterey County",101.01,"06053010101"
"1015459","STAR CONVENIENCE","1 POST ST McKESSON PLAZA #104, SAN FRANCISCO, CA 94104",37.7887655,-122.4027468,"San Francisco County",117,"06075011700"
"110586","FOOD MART VALERO","1 SUTTER ST, RED BLUFF, CA 96080",40.1528147,-122.2209266,"Tehama County",7,"06103000700"
"1017082","MY PLACE CONVENIENT STORE","1 W DUARTE RD #C, ARCADIA, CA 91007",34.129881,-118.0316647,"Los Angeles County",4307.21,"06037430721"
"1019841","WESTBOROUGH KWIK SERVE","1 WESTBOROUGH BL, SOUTH SAN FRANCISCO, CA 94080",37.6550488,-122.4343653,"San Mateo County",6023,"06081602300"
"1025892","CVS PHARMACY #9807","10 BAYHILL CTR, SAN BRUNO, CA 94066",37.6268297,-122.4262441,"San Mateo County",6041.02,"06081604102"
"1021286","THE MARKET PLACE","10 CENTERPOINT DR #1, LA PALMA, CA 90623",33.861233,-118.0294294,"Orange County",1101.15,"06059110115"
"1010588","DRIVE IN LIQUOR","10 E HUNTINGTON DR, ARCADIA, CA 91006",34.139755,-118.0308115,"Los Angeles County",4308.01,"06037430801"
"1013974","A & M WESTSIDE MARKET","10 E WHITESBRIDGE RD, FRESNO, CA 93706",36.7355999,-119.8126956,"Fresno County",2,"06019000200"
"695387","QUIK STOP #4143","10 KENTUCKY AV, WOODLAND, CA 95695",38.691638,-121.783387,"Yolo County",109.01,"06113010901"
"1027321","COUNTRY KORNER MARKET","10 MILLER ST, BODFISH, CA 93205",35.5904307,-118.4959989,"Kern County",52.04,"06029005204"
"1015883","NATIONAL CITY VALERO","10 OSBORN ST, NATIONAL CITY, CA 91950",32.6824075,-117.1098456,"San Diego County",219,"06073021900"
"1032856","RESTANO WAY LIQUORS","10 RESTANO WAY, SONORA, CA 95370",37.976903,-120.379792,"Tuolumne County",12,"06109001200"
"1001940","FAIRGROUNDS CHEVRON","10 SAGE ST #B, VALLEJO, CA 94589",38.1406484,-122.2310446,"Solano County",2519.01,"06095251901"
"572234","QUIK STOP #9131","10 SAN FELIPE RD, HOLLISTER, CA 95023",36.8569194,-121.4023814,"San Benito County",3,"06069000300"
"1025843","CVS PHARMACY #9801","10 SHAW AV, CLOVIS, CA 93612",36.8079204,-119.7085642,"Fresno County",31.02,"06019003102"
"1028107","SHOP N SAVE","10 SIOC ST, COLUSA, CA 95932",39.204712,-122.004452,"Colusa County",2,"06011000200"
"1033493","SHOP N SAVE","10 SIOC ST, COLUSA, CA 95932",39.204712,-122.004452,"Colusa County",2,"06011000200"
"1034427","SHOP N SAVE","10 SIOC ST, COLUSA, CA 95932",39.204712,-122.004452,"Colusa County",2,"06011000200"
"1035991","SHOP N SAVE","10 SIOC ST, COLUSA, CA 95932",39.204712,-122.004452,"Colusa County",2,"06011000200"
"688551","CHEVRON #1737","10 SOLANO SQ, BENICIA, CA 94510",38.055034,-122.157186,"Solano County",2521.08,"06095252108"
"1030892","SAMCO UNION #7","10 UNION AV, BAKERSFIELD, CA 93307",35.354613,-119.002564,"Kern County",21,"06029002100"
"1027570","VILLAGE GAS N MART","10 VISTA DE LAGA DR, VALLEY SPRINGS, CA 95252",38.169184,-120.839366,"Calaveras County",2.1,"06009000210"
"1024674","U SAVE MARKET","10 W COLTON AVE, REDLANDS, CA 92374",34.0631783,-117.1828434,"San Bernardino County",80.02,"06071008002"
"687648","DERBY CLUB AT SEASIDE PARK","10 W HARBOR BL, VENTURA, CA 93001",34.2759878,-119.3037615,"Ventura County",24,"06111002400"
"1009215","ORLAND STOP & SHOP","10 WALKER ST, ORLAND, CA 95963",39.7477037,-122.1879976,"Glenn County",101,"06021010100"
"557108","RAPIDO MARKET","100 BEAR MT BL, ARVIN, CA 93203",35.2093961,-118.8246703,"Kern County",63.01,"06029006301"
"1031495","SUNSHINE","100 BERKELEY SQ, BERKELEY, CA 94704",37.8710928,-122.267959,"Alameda County",4229,"06001422900"
"1033000","BONITA SHELL","100 BONITA RD, CHULA VISTA, CA 91910",32.6477278,-117.0637604,"San Diego County",123.04,"06073012304"
"183571","SAFEWAY 02-0713","100 CALISTOGA RD, SANTA ROSA, CA 95409",38.4657288,-122.6516732,"Sonoma County",1526,"06097152600"
"1008178","CITADEL OUTLETS CUSTOMER SERVICE","100 CITADEL DR STE 480, CTY OF CMMRCE, CA 90040",34.0061604,-118.1516284,"Los Angeles County",5323.03,"06037532303"
"406973","7-ELEVEN 2366-14318","100 CLARENDON RD, PACIFICA, CA 94044",37.6296333,-122.4909402,"San Mateo County",6030,"06081603000"
"678404","CODDINGTOWN VALERO","100 CODDINGTOWN CTR, SANTA ROSA, CA 95401",38.4595506,-122.7287772,"Sonoma County",1530.01,"06097153001"
"1014200","RAJIS MINI MART","100 D ST, WHEATLAND, CA 95692",39.0107067,-121.4266693,"Yuba County",408,"06115040800"
"1023912","CALIFORNIA FOOD MARKET","100 D W HAMILTON AV, CAMPBELL, CA 95008",37.2937659,-121.95193,"Santa Clara County",5065.03,"06085506503"
"182671","SAFEWAY 09-0639","100 DE ANZA BL, SAN MATEO, CA 94402",37.5206463,-122.3378475,"San Mateo County",6068,"06081606800"
"1022667","DON MAX CHECK CASHING","100 E 5TH ST, OXNARD, CA 93030",34.1974505,-119.177194,"Ventura County",91,"06111009100"
"1010939","VALERO #3517","100 E BELLEVUE, ATWATER, CA 95301",37.3602319,-120.5955199,"Merced County",8.01,"06047000801"
"1034050","7-ELEVEN 2710-37970","100 E BELLEVUE, ATWATER, CA 95301",37.3602319,-120.5955199,"Merced County",8.01,"06047000801"
"1004432","COMMUNITY MARKET","100 E BIG BEAR BL, BIG BEAR CITY, CA 92314",34.2608826,-116.8453639,"San Bernardino County",114.01,"06071011401"
"1026199","CENTURY CHEVRON","100 E GLENWOOD AV, TURLOCK, CA 95380",37.4750917,-120.8484693,"Stanislaus County",37,"06099003700"
"1006088","CHEVRON #1984","100 E KATELLA AVE, ANAHEIM, CA 92802",33.8030505,-117.9062591,"Orange County",875.04,"06059087504"
"1011083","BUZZ'S MINI MARKET","100 E MAIN ST, BARSTOW, CA 92311",34.8983912,-117.0274569,"San Bernardino County",94,"06071009400"
"1029611","MIKES LIQUOR","100 E PACIFIC COAST HWY, LONG BEACH, CA 90806",33.7896853,-118.192665,"Los Angeles County",5754.02,"06037575402"
"1024912","DANDY MARKET","100 EL PRADO, SAN RAFAEL, CA 94903",37.9968227,-122.5364892,"Marin County",1082,"06041108200"
"675865","ARTZ' WESTSIDE CHEVRON","100 KERN ST, TAFT, CA 93268",35.1409975,-119.4516739,"Kern County",35,"06029003500"
"1017593","ARCO AM/PM","100 LA TERRAZA BL, ESCONDIDO, CA 92025",33.1167421,-117.0959776,"San Diego County",205,"06073020500"
"1008205","ARCO AM/PM","100 LAKE BLVD, REDDING, CA 96003",40.6098686,-122.3799886,"Shasta County",107.04,"06089010704"
"1033835","LAKE BLVD ARCO","100 LAKE BLVD, REDDING, CA 96003",40.6098686,-122.3799886,"Shasta County",107.04,"06089010704"
"1001604","MODEL FOOD MART","100 LEWELLING BL, SAN LORENZO, CA 94580",37.6863736,-122.1252771,"Alameda County",4337,"06001433700"
"1029925","100 MAC 76","100 MACARTHUR BLVD, OAKLAND, CA 94610",37.81951,-122.253427,"Alameda County",4040,"06001404000"
"1031343","C STOP #5662","100 MARINWOOD AVE, SAN RAFAEL, CA 94903",38.0330094,-122.5403964,"Marin County",1070,"06041107000"
"1001322","PACIFICA CHEVRON","100 MILAGRA DR, PACIFICA, CA 94044",37.6458323,-122.4909392,"San Mateo County",6030,"06081603000"
"694206","ARCO AM/PM","100 MONTARA RD, BARSTOW, CA 92311",34.8852931,-116.9942466,"San Bernardino County",120.02,"06071012002"
"1003297","CASILLAS BROTHERS MARKET","100 MONTEREY SALINAS HWY, SALINAS, CA 93908",36.644936,-121.6643595,"Monterey County",15,"06053001500"
"1006068","ARCO AM/PM","100 N AZUSA AV, AZUSA, CA 91702",34.121929,-117.9072818,"Los Angeles County",4043.01,"06037404301"
"1025777","TAZ 76","100 N BEACH BLVD, ANAHEIM, CA 92801",33.8317479,-117.9930236,"Orange County",869.03,"06059086903"
"1032529","GRAND CREEK LIQUOR","100 N GRAND AVE BLDG A, WEST COVINA, CA 91791",34.0731961,-117.871699,"Los Angeles County",4036,"06037403600"
"556582","BINIT'S ARCO AM/PM","100 N TUSTIN AV, ORANGE, CA 92867",33.7881729,-117.8360504,"Orange County",758.05,"06059075805"
"546592","CAPRI FOOD &  LIQUOR","100 PERKINS AV, MC FARLAND, CA 93250",35.6821387,-119.2289919,"Kern County",47.01,"06029004701"
"169064","RALEY'S #337","100 RALEYS TOWN CTR, ROHNERT PARK, CA 94928",38.3466395,-122.7074287,"Sonoma County",1513.05,"06097151305"
"1029705","COPPER STATION","100 REEDS TURNPIKE, COPPEROPOLIS, CA 95228",37.9734498,-120.6511297,"Calaveras County",1.2,"06009000120"
"1009474","SAVE MART #626","100 RIVER RD, TAHOE CITY, CA 96145",39.1680142,-120.1459582,"Placer County",222,"06061022200"
"1018105","SAFEWAY 05-2934","100 S 2ND ST, SAN JOSE, CA 95113",37.3347943,-121.8875759,"Santa Clara County",5009.01,"06085500901"
"1035086","ANAHEIM MOBIL","100 S BEACH BLVD, ANAHEIM, CA 92804",33.8316653,-117.9929779,"Orange County",869.03,"06059086903"
"1028064","JOE'S FOOD MART","100 S CHOWCHILLA BLVD, CHOWCHILLA, CA 93610",37.1249101,-120.2564068,"Madera County",3,"06039000300"
"1013227","USA CHECKS CASHED #482","100 S EUCLID, ONTARIO, CA 91762",34.06317,-117.6513921,"San Bernardino County",14,"06071001400"
"677752","RAYMOND'S CHEVRON","100 S GLENOAKS BL, BURBANK, CA 91502",34.1831926,-118.3057863,"Los Angeles County",3107.02,"06037310702"
"1030682","LAS POSAS CAR WASH","100 S LAS POSAS RD, CAMARILLO, CA 93010",34.2174117,-119.0690653,"Ventura County",56,"06111005600"
"1023534","INDIE CO","100 S OSWELL ST, BAKERSFIELD, CA 93307",35.3537395,-118.9503581,"Kern County",23.01,"06029002301"
"1026830","MC FARLAND CHEVRON","100 SHERWOOD AV, MC FARLAND, CA 93250",35.6745931,-119.2281643,"Kern County",47.01,"06029004701"
"1034296","CALIFORNIA FOOD MART","100 W  HAMILTON AVE, CAMPBELL, CA 95008",37.2937659,-121.95193,"Santa Clara County",5065.03,"06085506503"
"1030148","MEXICAN BROTHER MARKET","100 W ALMA AVE, SAN JOSE, CA 95110",37.314897,-121.8757988,"Santa Clara County",5031.21,"06085503121"
"1029506","JC MEAT MARKET","100 W ALONDRA BLVD, COMPTON, CA 90220",33.888386,-118.2241216,"Los Angeles County",5432.02,"06037543202"
"1001338","THE CAR WASH AT SUNNY HILLS","100 W BASTANCHURY RD, FULLERTON, CA 92835",33.8951586,-117.9293928,"Orange County",17.06,"06059001706"
"1021737","GLENDALE GALLERIA GUEST SERVICE DESK","100 W BROADWAY STE 2233, GLENDALE, CA 91210",34.1460922,-118.2583671,"Los Angeles County",3023.01,"06037302301"
"1015318","RALPHS GROCERY #680","100 W CARRILLO ST, SANTA BARBARA, CA 93101",34.4200253,-119.7042235,"Santa Barbara County",10,"06083001000"
"1017735","CVS PHARMACY #9698","100 W FOOTHILL BL, UPLAND, CA 91786",34.1056256,-117.6526279,"San Bernardino County",8.24,"06071000824"
"1007720","FOOTHILL 66","100 W FOOTHILL BLVD, POMONA, CA 91767",34.1077325,-117.7490023,"Los Angeles County",4017.03,"06037401703"
"285602","7-ELEVEN 2176-27356","100 W IMPERIAL AV, EL SEGUNDO, CA 90245",33.930571,-118.4165396,"Los Angeles County",6201.01,"06037620101"
"1019001","PAGODA CHINESE FOOD","100 W IMPERIAL AVE STE I, EL SEGUNDO, CA 90245",33.930571,-118.4165396,"Los Angeles County",6201.01,"06037620101"
"1027636","7-ELEVEN 2174-36866","100 W LA HABRA BLVD, LA HABRA, CA 90631",33.9315027,-117.946351,"Orange County",12.02,"06059001202"
"1027159","CVS PHARMACY #9261","100 W LODI AV, LODI, CA 95240",38.1295275,-121.274474,"San Joaquin County",43.02,"06077004302"
"1009128","MAC ARTHUR MOBIL","100 W MAC ARTHUR BL, SANTA ANA, CA 92707",33.6995851,-117.8685785,"Orange County",740.04,"06059074004"
"1026079","GOLDENWEST DONUTS","100 W PACIFIC COAST  HWY, LONG BEACH, CA 90806",33.7898505,-118.1926058,"Los Angeles County",5754.02,"06037575402"
"1023394","SAN GABRIEL FUEL","100 W VALLEY BLVD, SAN GABRIEL, CA 91776",34.0793638,-118.1001318,"Los Angeles County",4814.01,"06037481401"
"1033869","OIL LEE INC","100 W VALLEY BLVD, SAN GABRIEL, CA 91776",34.0793638,-118.1001318,"Los Angeles County",4814.01,"06037481401"
"1018713","SUNSET MARKET","1000 BEVERLY DR, MODESTO, CA 95351",37.6216262,-121.0210038,"Stanislaus County",16.03,"06099001603"
"687626","HARBOUR WAY MART","1000 CUTTING BL, RICHMOND, CA 94804",37.9249399,-122.3595576,"Contra Costa County",3800,"06013380000"
"1025353","DOUGLAS SHELL","1000 DOUGLAS BLVD, ROSEVILLE, CA 95678",38.7436026,-121.2785746,"Placer County",208.06,"06061020806"
"1019942","CALI FOODS MARKET","1000 E VALLEY BL, ALHAMBRA, CA 91801",34.0782454,-118.1132181,"Los Angeles County",4815,"06037481500"
"1031792","DISCOUNT HOUSE","1000 E WASHINGTON BLVD #112, LOS ANGELES, CA 90021",34.0256517,-118.2531705,"Los Angeles County",2260.01,"06037226001"
"1026424","4 BROS LIQUOR & MARKET","1000 E WASHINGTON ST #F, COLTON, CA 92324",34.0478724,-117.3116358,"San Bernardino County",71.07,"06071007107"
"1009495","LUCKY #709","1000 EL CERRITO PLZ, EL CERRITO, CA 94530",37.9005527,-122.2981725,"Contra Costa County",3891,"06013389100"
"681459","CHEVRON #1512","1000 HARRISON ST, SAN FRANCISCO, CA 94103",37.7773018,-122.4046227,"San Francisco County",178.02,"06075017802"
"1021159","NOB HILL LIQUORS","1000 HYDE ST, SAN FRANCISCO, CA 94109",37.7902718,-122.41707,"San Francisco County",111,"06075011100"
"1020067","RODNEYS CIGAR & LIQUOR","1000 J ST, SACRAMENTO, CA 95814",38.5800237,-121.4934026,"Sacramento County",11.01,"06067001101"
"1011284","LIL STOP","1000 LINCOLN RD #M, YUBA CITY, CA 95991",39.1121427,-121.6266758,"Sutter County",504.01,"06101050401"
"1006861","RODEO GROCERY","1000 MARIPOSA ST, RODEO, CA 94572",38.0370331,-122.2625384,"Contra Costa County",3580,"06013358000"
"1029502","NORTH H USA","1000 N H ST, LOMPOC, CA 93436",34.6538269,-120.457137,"Santa Barbara County",28.02,"06083002802"
"1002705","ARCO JOYCE","1000 N HARBOR BL, FULLERTON, CA 92832",33.8793842,-117.9240653,"Orange County",114.01,"06059011401"
"1033203","EL SUPER #50","1000 N MOUNTAIN AV, ONTARIO, CA 91762",34.0767972,-117.6685159,"San Bernardino County",11.04,"06071001104"
"1032185","PACVINE","1000 N PACIFIC AVE, GLENDALE, CA 91202",34.1600705,-118.2639398,"Los Angeles County",3012.04,"06037301204"
"1034420","PRIME AUTO INC","1000 N STATE COLLEGE BLVD, ANAHEIM, CA 92806",33.8476622,-117.8888158,"Orange County",864.02,"06059086402"
"1008106","PARK PLACE LIQUOR","1000 PARK PL, CORONADO, CA 92118",32.6851844,-117.1805627,"San Diego County",218,"06073021800"
"1009525","LUCKY #741","1000 PETALUMA BL N, PETALUMA, CA 94952",38.2456832,-122.6431943,"Sonoma County",1509.01,"06097150901"
"589195","ROSE FOOD MART","1000 POTRERO AV, SAN FRANCISCO, CA 94110",37.7560336,-122.4069179,"San Francisco County",228.02,"06075022802"
"1021802","1000 SOUTH VERMONT LLC","1000 S VERMONT AV, LOS ANGELES, CA 90006",34.0518781,-118.2909911,"Los Angeles County",2134.02,"06037213402"
"685291","QUICK MART LIQUOR","1000 SUNRISE AV #2B, ROSEVILLE, CA 95661",38.7287339,-121.2730089,"Placer County",207.14,"06061020714"
"1030120","SMOKE SHOP","1000 TORRANCE BLVD #D, REDONDO BEACH, CA 90277",33.8385822,-118.3757825,"Los Angeles County",6213.01,"06037621301"
"1034578","CHICO SMOKE SHOP","1000 W  SACRAMENTO AVE #B, CHICO, CA 95926",39.7314412,-121.8583335,"Butte County",5.02,"06007000502"
"688407","VONS GROCERY 57-2345","1000 W EL NORTE PARKWAY, ESCONDIDO, CA 92026",33.1486299,-117.1063635,"San Diego County",203.05,"06073020305"
"1025876","CVS PHARMACY #9243","1000 W KETTLEMAN LN, LODI, CA 95240",38.1139136,-121.2846517,"San Joaquin County",43.07,"06077004307"
"1026280","FIRST STOP LIQUOR","1000 W LINCOLN ST, ANAHEIM, CA 92805",33.8323721,-117.9260463,"Orange County",872,"06059087200"
"1012119","LODI AVENUE LIQUORS","1000 W LODI AV, LODI, CA 95240",38.1297208,-121.2853585,"San Joaquin County",43.02,"06077004302"
"693715","7-ELEVEN 2174-33257","1000 W ORANGETHORPE AV, FULLERTON, CA 92833",33.8590137,-117.9421898,"Orange County",111.01,"06059011101"
"687105","JOE' AM/PM","1000 W VALENCIA DR, FULLERTON, CA 92833",33.8664393,-117.9422035,"Orange County",111.01,"06059011101"
"685487","OASIS MARKET","10000 CROWSLANDING RD, CROWS LANDING, CA 95313",37.492655,-120.994211,"Stanislaus County",36.03,"06099003603"
"1030155","SHORT STOP SHOPPING CENTER","10000 MAIN ST, LAMONT, CA 93241",35.264564,-118.91483,"Kern County",64.03,"06029006403"
"1026101","BOB'S FOODMARKET & LIQUOR","10000 NATIONAL BL, LOS ANGELES, CA 90034",34.0287572,-118.4032955,"Los Angeles County",2699.07,"06037269907"
"1017611","ASTRO LIQUOR","10000 S AVALON BL, LOS ANGELES, CA 90003",33.945288,-118.2648,"Los Angeles County",2407,"06037240700"
"1027255","GSE 76 FIGUEROA #256871","10000 S FIGUEROA ST, LOS ANGELES, CA 90003",33.9452696,-118.2822336,"Los Angeles County",2404.02,"06037240402"
"1010166","REDS LIQUOR","10001 S MAIN ST, LOS ANGELES, CA 90003",33.9453284,-118.2742129,"Los Angeles County",2405,"06037240500"
"1037466","REDS LIQUOR","10001 S MAIN ST, LOS ANGELES, CA 90003",33.9453284,-118.2742129,"Los Angeles County",2405,"06037240500"
"1033031","CUPERTINO VALERO","10002 N DE ANZA BLVD, CUPERTINO, CA 95014",37.3233666,-122.0317839,"Santa Clara County",5081.01,"06085508101"
"1020379","CUPERTINO VALERO","10002 N DEANZA BL, CUPERTINO, CA 95014",37.3233842,-122.0339744,"Santa Clara County",5078.06,"06085507806"
"682423","7-ELEVEN 2175-25625","10008 VALLEY BL, EL MONTE, CA 91731",34.0783943,-118.0526438,"Los Angeles County",4328.02,"06037432802"
"690260","TRUCKEE BEACON","10009 DONNER PASS ROAD, TRUCKEE, CA 96161",39.3280832,-120.1838255,"Nevada County",12.06,"06057001206"
"1029239","CAPITAL FOOD AND LIQUOR","10009 FOLSOM BLVD STE B, SACRAMENTO, CA 95827",38.581149,-121.321341,"Sacramento County",89.09,"06067008909"
"1035585","CAPITAL FOOD AND LIQUOR","10009 FOLSOM BLVD STE B, SACRAMENTO, CA 95827",38.581149,-121.321341,"Sacramento County",89.09,"06067008909"
"1028390","ROUND THE CLOCK","1001 BUSH ST, SAN FRANCISCO, CA 94109",37.7893538,-122.4140304,"San Francisco County",121,"06075012100"
"1022592","1001 CASTRO STREET","1001 CASTRO ST, SAN FRANCISCO, CA 94114",37.7536083,-122.4340171,"San Francisco County",211,"06075021100"
"1033127","CUTTING GAS & FOOD","1001 CUTTING BLVD, RICHMOND, CA 94804",37.9249316,-122.3596841,"Contra Costa County",3800,"06013380000"
"1020785","SMOKE SHOP","1001 E AMAR RD #110, WEST COVINA, CA 91792",34.036126,-117.925821,"Los Angeles County",4079,"06037407900"
"1003343","THE SHORT STOP MARKET","1001 E DONOVAN RD, SANTA MARIA, CA 93454",34.9680026,-120.4202367,"Santa Barbara County",22.1,"06083002210"
"561964","7-ELEVEN 2175-13946","1001 E GRAND AV, POMONA, CA 91766",34.0481606,-117.7363642,"Los Angeles County",4028.04,"06037402804"
"1035551","BEAUTY SUPPLY STORE","1001 E PACIFIC COAST HWY #115, LONG BEACH, CA 90806",33.7902722,-118.1801246,"Los Angeles County",5733,"06037573300"
"1003962","ING'S MARKET","1001 E PACIFIC COAST HWY, LONG BEACH, CA 90806",33.7902722,-118.1801246,"Los Angeles County",5733,"06037573300"
"1023062","SEVEN DAYS LIQUOR","1001 E WILLIAMS ST, BARSTOW, CA 92311",34.8980671,-117.0134131,"San Bernardino County",95,"06071009500"
"1033247","DINO MART","1001 E YOSEMITE AVE, MANTECA, CA 95336",37.7976543,-121.2027999,"San Joaquin County",51.1,"06077005110"
"1023053","7-ELEVEN 2136-35684","1001 FOOTHILL BLVD, LA CANADA FLINTRIDGE, CA 91011",34.2047835,-118.2006877,"Los Angeles County",4605.02,"06037460502"
"1004957","CIRCLE D LIQUOR","1001 KANSAS AV STE A, MODESTO, CA 95351",37.6464232,-121.0214451,"Stanislaus County",6.02,"06099000602"
"1019456","LAKEVILLE SHELL #114","1001 LAKEVILLE ST, PETALUMA, CA 94952",38.2356403,-122.6217876,"Sonoma County",1507.01,"06097150701"
"1026408","QUIK STOP #4001","1001 MACARTHUR BL, SAN LEANDRO, CA 94577",37.7341609,-122.140422,"Alameda County",4321,"06001432100"
"1005947","SUSANVILLE BEACON","1001 MAIN ST, SUSANVILLE, CA 96130",40.4179128,-120.6574819,"Lassen County",403.05,"06035040305"
"690133","SANTA CLARA LIQUORS","1001 MONROE ST, SANTA CLARA, CA 95050",37.34852,-121.9481138,"Santa Clara County",5056,"06085505600"
"1032972","RITE AID #6214","1001 N CENTRAL AV, COMPTON, CA 90222",33.9032767,-118.2545178,"Los Angeles County",5412,"06037541200"
"243187","7-ELEVEN 2174-25047","1001 N HARBOR BL, ANAHEIM, CA 92801",33.8476943,-117.9242923,"Orange County",866.01,"06059086601"
"632219","CIRCLE K 5228","1001 PETIT AV, VENTURA, CA 93004",34.2724421,-119.1715859,"Ventura County",14.01,"06111001401"
"496037","SF GEN HOSPITAL GIFT SHOP","1001 POTRERO AV, SAN FRANCISCO, CA 94110",37.7558047,-122.4044432,"San Francisco County",228.02,"06075022802"
"1022666","ARCO AM/PM","1001 REDONDO AVE, LONG BEACH, CA 90804",33.7793078,-118.152874,"Los Angeles County",5769.03,"06037576903"
"1024103","KWIK STOP","1001 SACRAMENTO AVE, WEST SACRAMENTO, CA 95605",38.5892755,-121.5278192,"Yolo County",101.02,"06113010102"
"266640","ALBANY AM/PM","1001 SAN PABLO AVE, ALBANY, CA 94706",37.8865179,-122.2974334,"Alameda County",4205,"06001420500"
"1028971","J. JOE'S MARKET","1001 TORRANCE BL, TORRANCE, CA 90502",33.842168,-118.2929354,"Los Angeles County",5435.02,"06037543502"
"1030623","GARDENA PETROLEUM","1001 W ARTESIA BLVD, GARDENA, CA 90248",33.8733459,-118.2914699,"Los Angeles County",6031.02,"06037603102"
"1036369","FILIPINO DEPOT","1001 W SAN MARCOS BLVD STE 135, SAN MARCOS, CA 92078",33.1337241,-117.1883723,"San Diego County",200.29,"06073020029"
"1022698","WILLOW PASS CHEVRON","1001 WILLOW PASS CT, CONCORD, CA 94520",38.0149015,-121.9993177,"Contra Costa County",3150,"06013315000"
"1024865","SANTA MONICA LIQUOR","1001 WILSHIRE BLVD, SANTA MONICA, CA 90401",34.024,-118.4926263,"Los Angeles County",7015.01,"06037701501"
"1017425","CVS PHARMACY #9483","10011 ADAMS AVE, HUNTINGTON BEACH, CA 92646",33.6741639,-117.9533575,"Orange County",992.16,"06059099216"
"419672","7-ELEVEN 2174-16931","10011 MILLS RD, WHITTIER, CA 90604",33.9429531,-118.0283229,"Los Angeles County",5032.02,"06037503202"
"269095","CASA DE FRUTA","10011 PACHECO PASS HWY, HOLLISTER, CA 95023",36.9904397,-121.3810989,"Santa Clara County",5135,"06085513500"
"1035386","RIO SMOKE SHOP","10012 HAWTHORNE BLVD, INGLEWOOD, CA 90304",33.9451471,-118.3525196,"Los Angeles County",6018.01,"06037601801"
"1007122","PIC-N-PAC LIQUOR","10012-14 SAN PABLO AV, EL CERRITO, CA 94530",37.9010019,-122.3023873,"Contra Costa County",3891,"06013389100"
"1009158","ARCO AM/PM","10015 BELLGRAVE AV, RIVERSIDE, CA 92509",34.0063226,-117.5038965,"Riverside County",406.07,"06065040607"
"674112","7-ELEVEN 1609-24548","10015 PALISADES DR, TRUCKEE, CA 96161",39.3257867,-120.1767106,"Nevada County",12.06,"06057001206"
"647619","SUNRISE MINI MART","10015 S ALTA, REEDLEY, CA 93654",36.5891153,-119.3953685,"Fresno County",63,"06019006300"
"116218","VONS GROCERY 58-4018","10016 SCRIPPS RANCH, SAN DIEGO, CA 92131",32.9118671,-117.1120201,"San Diego County",170.22,"06073017022"
"1036203","COLUMBIA STORE","10017 OLD OREGON TRAIL, REDDING, CA 96003",40.5787394,-122.3054526,"Shasta County",108.05,"06089010805"
"1032996","CHERRI'S DONUTS","10017 ORR & DAY RD, SANTA FE SPRINGS, CA 90670",33.9473142,-118.0904961,"Los Angeles County",5028.01,"06037502801"
"1008666","COOL MART","10019 MILLS AVE, WHITTIER, CA 90604",33.942812,-118.0284171,"Los Angeles County",5032.02,"06037503202"
"679514","TYLER'S DONUTS","1002 CASITAS PASS RD, CARPINTERIA, CA 93013",34.3955734,-119.5142387,"Santa Barbara County",16.04,"06083001604"
"1031799","ANS MARKET & LIQUOR","1002 E 17TH ST #E, SANTA ANA, CA 92701",33.7592625,-117.8571932,"Orange County",754.03,"06059075403"
"670227","B-2 MARKET","1002 E AV R, PALMDALE, CA 93550",34.572219,-118.1114444,"Los Angeles County",9105.04,"06037910504"
"1009272","CHEVRON #1775","1002 LAKEVILLE ST, PETALUMA, CA 94952",38.2349653,-122.6220915,"Sonoma County",1507.01,"06097150701"
"1032423","ARCO AM/PM","1002 MANHATTAN BEACH BL, MANHATTAN BEACH, CA 90266",33.887107,-118.3979143,"Los Angeles County",6209.01,"06037620901"
"684648","CIVIC PLAZA STATION INC","1002 N FIRST ST, SAN JOSE, CA 95112",37.3557136,-121.9046279,"Santa Clara County",5002,"06085500200"
"688950","KIM'S JIFFY MARKET","1002 N H ST, LOMPOC, CA 93436",34.654277,-120.456846,"Santa Barbara County",28.02,"06083002802"
"1014530","MT VERNON LIQUOR","1002 N MT VERNON AV, COLTON, CA 92324",34.0744116,-117.313584,"San Bernardino County",70,"06071007000"
"1036925","SANTA ANITA WINE & SPIRITS","1002 N SANTA ANITA AVE, ARCADIA, CA 91006",34.1501966,-118.0335232,"Los Angeles County",4306,"06037430600"
"1018861","SANTA ANITA WINE & SPIRITS","1002 N SANTA ANITA, ARCADIA, CA 91006",34.1501768,-118.0312714,"Los Angeles County",4304,"06037430400"
"1036812","CHEVRON EXTRA MILE","1002 NORTH FIRST ST, SAN JOSE, CA 95112",37.3557155,-121.9046185,"Santa Clara County",5002,"06085500200"
"207091","DAY & NIGHT FOODMART","1002 VENICE BL, VENICE, CA 90291",33.9934131,-118.4532049,"Los Angeles County",2738,"06037273800"
"679410","7-ELEVEN 2367-25950","1002 W EVELYN AV, SUNNYVALE, CA 94086",37.3828011,-122.0454216,"Santa Clara County",5091.06,"06085509106"
"1015095","SUPER POWER MART","10020 LIVE OAK BL, LIVE OAK, CA 95953",39.2704039,-121.659399,"Sutter County",507.01,"06101050701"
"682857","CHEVRON #1879","10020 WARNER AV, FOUNTAIN VALLEY, CA 92708",33.7158375,-117.9540488,"Orange County",992.51,"06059099251"
"1019342","HIGGINS VILLAGE CHEVRON","10021 COMBIE RD, AUBURN, CA 95602",39.0419491,-121.0940126,"Nevada County",1.03,"06057000103"
"1035562","TRANS LIQUOR","10021 HAWTHORNE BLVD, INGLEWOOD, CA 90304",33.9447326,-118.3528278,"Los Angeles County",6018.01,"06037601801"
"693601","TRAN'S LIQUOR","10021 HAWTHORNE BLVD, INGLEWOOD, CA 90304",33.9447326,-118.3528278,"Los Angeles County",6018.01,"06037601801"
"689842","BEST GAS & BEAR RIVER MARKET","10021 WOLF RD #A, GRASS VALLEY, CA 95949",39.0426218,-121.0949916,"Nevada County",1.05,"06057000105"
"1003823","CHEVRON #1765","10023 S DE ANZA BL, CUPERTINO, CA 95014",37.3226233,-122.0328672,"Santa Clara County",5077.01,"06085507701"
"1025478","JR S LIQUOR","10025 S INGLEWOOD AVE, LENNOX, CA 90304",33.9447615,-118.3617335,"Los Angeles County",6015.01,"06037601501"
"1027369","LIQUOR WAREHOUSE","10025 S PRAIRIE AVE, INGLEWOOD, CA 90303",33.9446759,-118.3441592,"Los Angeles County",6018.01,"06037601801"
"534287","ARMAND'S LIQUOR","10029 E VALLEY BL, EL MONTE, CA 91731",34.0788917,-118.0519226,"Los Angeles County",4328.02,"06037432802"
"612853","HOOVER MARKET","10029 S HOOVER ST, LOS ANGELES, CA 90044",33.9447398,-118.2871378,"Los Angeles County",2404.02,"06037240402"
"1031844","ARTEAGAS FOOD CENTER LINCOLN","1003 LINCOLN AVE, SAN JOSE, CA 95125",37.3121834,-121.9042262,"Santa Clara County",5023.02,"06085502302"
"678005","7-ELEVEN 2136-17565","1003 S BALDWIN AV, ARCADIA, CA 91007",34.1286124,-118.055034,"Los Angeles County",4307.24,"06037430724"
"1027664","SMOKY TANGO","1003 S VERMONT AVE, LOS ANGELES, CA 90006",34.051976,-118.2917275,"Los Angeles County",2133.2,"06037213320"
"1032690","DOWNEY ARCO","10030 LAKEWOOD BLVD, DOWNEY, CA 90240",33.9476668,-118.1166502,"Los Angeles County",5505,"06037550500"
"689843","ALTA SIERRA STATION","10032 ALTA SIERRA DR, GRASS VALLEY, CA 95945",39.1414471,-121.0706042,"Nevada County",1.04,"06057000104"
"1034879","CALI TOBACCO & SMOKE SHOP","10036 SIERRA AVE #B, FONTANA, CA 92335",34.071559,-117.436564,"San Bernardino County",33.01,"06071003301"
"1009853","RS LIQUOR","1004 DAIRY AVE, CORCORAN, CA 93212",36.0992266,-119.5724871,"Kings County",15,"06031001500"
"1034080","RS LIQUOR","1004 DAIRY AVE, CORCORAN, CA 93212",36.0992266,-119.5724871,"Kings County",15,"06031001500"
"675326","CHALLENGER LIQUOR","1004 E AVENUE K, LANCASTER, CA 93535",34.6749398,-118.111832,"Los Angeles County",9005.04,"06037900504"
"373035","7-ELEVEN 2176-20679","1004 LONG BEACH BL, LONG BEACH, CA 90813",33.7791757,-118.1887807,"Los Angeles County",5763.01,"06037576301"
"673005","QUINTINS MOBIL","1004 N HACIENDA BL, LA PUENTE, CA 91744",34.0375233,-117.9494531,"Los Angeles County",4076.01,"06037407601"
"646048","PRO-MART","1004 S LA CIENEGA BL, LOS ANGELES, CA 90035",34.0591828,-118.3758128,"Los Angeles County",2168,"06037216800"
"1030481","FORT BRAGG EXPRESS","1004 S MAIN ST, FORT BRAGG, CA 95437",39.429093,-123.806135,"Mendocino County",105,"06045010500"
"1029332","CANNON'S LIQUOR","1004 S MT SHASTA BLVD, MOUNT SHASTA, CA 96067",41.3048112,-122.3090782,"Siskiyou County",10,"06093001000"
"1014959","U S MARKET","1004 W CENTURY BLVD, LOS ANGELES, CA 90044",33.9451244,-118.2922126,"Los Angeles County",6002.02,"06037600202"
"1013042","SUPER STOP MARKET","10040 LAUREL CANYON RD, PACOIMA, CA 91331",34.252795,-118.425282,"Los Angeles County",1045,"06037104500"
"1031950","TRUCKEE 76","10041 DONNER PASS RD, TRUCKEE, CA 96161",39.3278614,-120.1842255,"Nevada County",12.06,"06057001206"
"1008611","7 & 7 MARKET","10041 LAUREL CANYON BL #1 & 2, PACOIMA, CA 91331",34.2523471,-118.4257458,"Los Angeles County",1048.22,"06037104822"
"674122","7-ELEVEN 2172-13823","10044 ELLIS AV, FOUNTAIN VALLEY, CA 92708",33.6937431,-117.9534065,"Orange County",992.3,"06059099230"
"1025872","CVS PHARMACY #3947","10045 COMBIE RD, AUBURN, CA 95602",39.0418678,-121.0926801,"Nevada County",1.03,"06057000103"
"1017882","CVS PHARMACY #9696","10048 MILLS AV, WHITTIER, CA 90604",33.9419947,-118.0284262,"Los Angeles County",5033.02,"06037503302"
"683036","7-ELEVEN 2131-13575","10049 CAMPO RD, SPRING VALLEY, CA 91977",32.7471779,-116.9784181,"San Diego County",135.03,"06073013503"
"1037209","EVERYDAY DISCOUNT STORE","1005 CARLSBAD VILLAGE DR STE F, CARLSBAD, CA 92008",33.1620676,-117.3429697,"San Diego County",179,"06073017900"
"1034734","CHANTRY'S PANTRY LIQUOR","1005 E AMAR RD, WEST COVINA, CA 91792",34.036518,-117.925772,"Los Angeles County",4079,"06037407900"
"678511","CHANTRY'S PANTRY LIQUOR","1005 E AMAR RD, WEST COVINA, CA 91792",34.036518,-117.925772,"Los Angeles County",4079,"06037407900"
"1025950","CVS PHARMACY #9923","1005 E BIDWELL, FOLSOM, CA 95630",38.6685272,-121.1562006,"Sacramento County",84.03,"06067008403"
"1019618","CIRCLE K","1005 MISSION RD, FALLBROOK, CA 92028",33.3870394,-117.2404255,"San Diego County",189.04,"06073018904"
"1022459","GATEWAY GAS ONE","1005 NORTHGATE DR, SAN RAFAEL, CA 94903",38.0084232,-122.545214,"Marin County",1081,"06041108100"
"1033072","CLEOPATRA TOBACCO","1005 S GAFFEY ST, SAN PEDRO, CA 90731",33.734964,-118.2927501,"Los Angeles County",2969.02,"06037296902"
"1026633","CVS PHARMACY #9155","1005 SUTTON WAY, GRASS VALLEY, CA 95945",39.236668,-121.0326756,"Nevada County",6,"06057000600"
"683627","A & L MARKET","1005 W ACACIA, STOCKTON, CA 95203",37.9603445,-121.3071203,"San Joaquin County",4.01,"06077000401"
"1025616","JS LIQUOR & MARKET","1005 W CENTURY BLVD, LOS ANGELES, CA 90044",33.9457116,-118.2923113,"Los Angeles County",6002.01,"06037600201"
"1025368","7-ELEVEN 2366-39660","1005 W EL CAMINO REAL, SUNNYVALE, CA 94087",37.3723114,-122.0489535,"Santa Clara County",5091.06,"06085509106"
"1008458","GAS MART","1005 W FLORIDA AVE, HEMET, CA 92543",33.7472137,-116.9818722,"Riverside County",434.05,"06065043405"
"1031637","QUEEN'S DONUT","1005 W MISSION BLVD, POMONA, CA 91766",34.0550655,-117.7610853,"Los Angeles County",4025.01,"06037402501"
"1032350","ELENA MARKET","10051 COMMERCE AVE, TUJUNGA, CA 91042",34.2516262,-118.2888168,"Los Angeles County",1012.1,"06037101210"
"1030018","NMSO #68198","10051 FOLSOM BL, SACRAMENTO, CA 95827",38.5811473,-121.319888,"Sacramento County",89.09,"06067008909"
"1032294","SNB SMOKE AND GIFT SHOP","10051 MAGNOLIA AVE #B5B, RIVERSIDE, CA 92503",33.9151966,-117.4568086,"Riverside County",412.01,"06065041201"
"684470","STATER BROS 159","10051 VALLEYVIEW, CYPRESS, CA 90630",33.8160383,-118.0292934,"Orange County",1101.14,"06059110114"
"1018671","TT DISCOUNT STORE","10053 VALLEY BLVD #13-14, EL MONTE, CA 91731",34.0787184,-118.0509041,"Los Angeles County",4328.02,"06037432802"
"692851","PASHA MARKET & LIQUOR","10054 MAGNOLIA AVE, RIVERSIDE, CA 92503",33.9140616,-117.456641,"Riverside County",316.01,"06065031601"
"1013741","FIVE STAR LIQUOR & MARKET","10059 ALONDRA BL, BELLFLOWER, CA 90706",33.8895919,-118.1200518,"Los Angeles County",5541.04,"06037554104"
"1014809","FRED'S CIGARETTE STORE","1006 6th ST, TAFT, CA 93268",35.1490362,-119.455305,"Kern County",35,"06029003500"
"1034042","A PAWN & JEWELRY","1006 E ANAHEIM ST, LONG BEACH, CA 90813",33.782306,-118.18033,"Los Angeles County",5764.01,"06037576401"
"695812","JAY'S LIQUOR STORE","1006 E SECOND ST, POMONA, CA 91766",34.0579278,-117.7367945,"Los Angeles County",4028.01,"06037402801"
"582376","CRESENT CITY TEXACO","1006 HWY 101 N, CRESCENT CITY, CA 95531",41.766091,-124.194827,"Del Norte County",1.04,"06015000104"
"1018960","FOOD MART","1006 W AVE H, LANCASTER, CA 93534",34.7180514,-118.148933,"Los Angeles County",9008.03,"06037900803"
"1035417","DESERT ROOM","1006 W GARDENA BLVD, GARDENA, CA 90247",33.8813579,-118.2916821,"Los Angeles County",6031.02,"06037603102"
"680849","LAKE STAR FOOD STORE","1006 W GRAHAM AV, LAKE ELSINORE, CA 92530",33.6708116,-117.339197,"Riverside County",430.06,"06065043006"
"1022960","ARCO AM/PM","10062 CHERRY AVE, FONTANA, CA 92335",34.0708453,-117.4895205,"San Bernardino County",22.04,"06071002204"
"690687","SIERRA SUPER STOP #16","10067 PLEASANT VALLEY RD, PENN VALLEY, CA 95946",39.2062152,-121.2050746,"Nevada County",4.02,"06057000402"
"1032227","FULL STOP MARKET","10069 FOLSOM BL, RANCHO CORDOVA, CA 95670",38.581801,-121.318851,"Sacramento County",89.11,"06067008911"
"1015076","7-ELEVEN 2131-34177","1007 5TH AVE, SAN DIEGO, CA 92101",32.715917,-117.1598893,"San Diego County",53,"06073005300"
"515137","BROADWAY TEXACO","1007 BROADWAY ST, EUREKA, CA 95501",40.7971796,-124.1746239,"Humboldt County",1,"06023000100"
"1035665","STOP AND SHOP MARKET","1007 E BRUNDAGE LN, BAKERSFIELD, CA 93307",35.3536688,-118.992751,"Kern County",22,"06029002200"
"632551","CIRCLE K 5220","1007 E MAIN ST, VENTURA, CA 93001",34.2811667,-119.285169,"Ventura County",21.02,"06111002102"
"686774","ASIAN AMERICAN MARKET","1007 E SANTA CLARA ST, VENTURA, CA 93001",34.2796868,-119.285292,"Ventura County",24,"06111002400"
"466773","RANCH LIQUOR","1007 E WASHINGTON AV, EL CAJON, CA 92020",32.7874044,-116.9479568,"San Diego County",154.04,"06073015404"
"694164","MASTER FRESH DONUT","1007 HACIENDA BL, HACIENDA HEIGHTS, CA 91745",34.011814,-117.9630149,"Los Angeles County",4085.01,"06037408501"
"1025504","COVINA DONUT","1007 N GRAND AVE STE A, COVINA, CA 91724",34.0978484,-117.8730162,"Los Angeles County",4037.21,"06037403721"
"1011634","SMART STOP","1007 SAN PABLO AV, PINOLE, CA 94564",38.0040938,-122.3045206,"Contra Costa County",3591.02,"06013359102"
"581791","ONE DOUBLE OH SEVEN CLUB","1007 SOQUEL AV, SANTA CRUZ, CA 95062",36.9788708,-122.0127727,"Santa Cruz County",1008,"06087100800"
"1020416","10TH & I SMOG & GAS STATION","1007 W AVE I, LANCASTER, CA 93534",34.7042394,-118.1484978,"Los Angeles County",9008.03,"06037900803"
"1002880","H FOOD MART","1007 W FOOTHILL BL, UPLAND, CA 91786",34.106948,-117.6655842,"San Bernardino County",8.24,"06071000824"
"693729","YOSEMITE LIQUOR","1007 YOSEMITE BL, MODESTO, CA 95354",37.638481,-120.9774556,"Stanislaus County",19,"06099001900"
"1029869","LUCKY MART","10074 CHAPMAN AVE, GARDEN GROVE, CA 92840",33.7881978,-117.9573408,"Orange County",882.03,"06059088203"
"1035503","LUCKY MART","10074 CHAPMAN AVE, GARDEN GROVE, CA 92840",33.7881978,-117.9573408,"Orange County",882.03,"06059088203"
"1004651","SAMY'S LIQUOR","10074 MILLS AVE, WHITTIER, CA 90604",33.9417449,-118.0292419,"Los Angeles County",5033.02,"06037503302"
"1005548","RANCHO CAR WASH","10075 ARROW RTE, RANCHO CUCAMONGA, CA 91730",34.0989368,-117.5850577,"San Bernardino County",21.07,"06071002107"
"1033946","SMOKING BOX","1008 ALAMITOS AVE, LONG BEACH, CA 90813",33.7793142,-118.1786982,"Los Angeles County",5764.01,"06037576401"
"1020660","DAVES LIQUORS","1008 FITZUREN RD, ANTIOCH, CA 94509",37.9984488,-121.8207884,"Contra Costa County",3071.02,"06013307102"
"1006980","PACIFIC FOOD MART","1008 N PACIFIC AV, GLENDALE, CA 91202",34.1602945,-118.2639669,"Los Angeles County",3012.04,"06037301204"
"1019212","BOWMANS MARKET","1008 PALM AV, IMPERIAL BEACH, CA 91932",32.5842815,-117.1115234,"San Diego County",105.02,"06073010502"
"1036543","2GO TESORO  #58363","1008 PLAZA DR, GRASS VALLEY, CA 95945",39.2342862,-121.0335772,"Nevada County",6,"06057000600"
"671863","FLYERS #31","1008 PLAZA DR, GRASS VALLEY, CA 95945",39.2342862,-121.0335772,"Nevada County",6,"06057000600"
"1025484","THE CLOUD SMOKE SHOP","1008 W SACRAMENTO AVE STE B, CHICO, CA 95926",39.7317019,-121.8588459,"Butte County",5.02,"06007000502"
"1018887","THE BROTHERS LIQUOR STORE","10080 ARROW RTE, RANCHO CUCAMONGA, CA 91730",34.0992676,-117.5852574,"San Bernardino County",21.07,"06071002107"
"1006921","RALPHS GROCERY #20","10085 ADAMS AVE, HUNTINGTON BEACH, CA 92646",33.6724643,-117.9527815,"Orange County",992.16,"06059099216"
"1035151","ARCO AM/PM #1815","10087 SIERRA AVE, FONTANA, CA 92335",34.0706602,-117.4353269,"San Bernardino County",33.02,"06071003302"
"1033328","LOS BANOS CHEVRON","1009 E PACHECO BLVD, LOS BANOS, CA 93635",37.056621,-120.84228,"Merced County",23.01,"06047002301"
"1022654","MAXX FOR LESS","1009 HIGHWAY 12, RIO VISTA, CA 94571",38.1620993,-121.6994342,"Solano County",2535,"06095253500"
"1004552","AMAR SHELL","1009 N HACIENDA BL, LA PUENTE, CA 91744",34.0374685,-117.9503299,"Los Angeles County",4076.01,"06037407601"
"1013452","PLAZA OLIVER FOOD STORE","1009 OLIVER RD, FAIRFIELD, CA 94534",38.2514627,-122.0698077,"Solano County",2523.05,"06095252305"
"1032843","A & A GAS & FOOD MART","1009 OLIVER RD, FAIRFIELD, CA 94534",38.2514627,-122.0698077,"Solano County",2523.05,"06095252305"
"1005677","BOSTON CREAM DONUTS","1009 W ANAHEIM ST, WILMINGTON, CA 90744",33.7796609,-118.2746375,"Los Angeles County",2943.02,"06037294302"
"672672","VALLEE FOOD STORE #17","10091 N MAPLE AV, FRESNO, CA 93730",36.8815362,-119.7488303,"Fresno County",55.17,"06019005517"
"1012981","CLEARDROPS WATER","10096 WESTMINSTER AVE, GARDEN GROVE, CA 92843",33.7594877,-117.9525137,"Orange County",889.03,"06059088903"
"1015152","E-Z STOP MOBIL","101 19TH ST, BAKERSFIELD, CA 93301",35.3758636,-119.0034042,"Kern County",16,"06029001600"
"1028412","7-HILLS FOOD & LIQUOR","101 APPIAN WAY, UNION CITY, CA 94587",37.5915209,-122.0028123,"Alameda County",4401,"06001440100"
"1032654","7-HILLS FOOD & LIQUOR","101 APPIAN WAY, UNION CITY, CA 94587",37.5915209,-122.0028123,"Alameda County",4401,"06001440100"
"1019473","BERNAL SHELL #131","101 BERNAL RD, SAN JOSE, CA 95119",37.2323323,-121.7729852,"Santa Clara County",5120.32,"06085512032"
"630624","KING CITY SHOPETTE","101 BROADWAY, KING CITY, CA 93930",36.2139092,-121.1236662,"Monterey County",113.02,"06053011302"
"1013617","MISSION FOOD & LIQUOR","101 DECOTO RD, UNION CITY, CA 94587",37.6022094,-122.016009,"Alameda County",4402,"06001440200"
"689419","DELMAS MARKET","101 DELMAS AV, SAN JOSE, CA 95110",37.330107,-121.8978813,"Santa Clara County",5008,"06085500800"
"1017277","CVS PHARMACY #9658","101 E ALAMEDA AVE, BURBANK, CA 91502",34.1741944,-118.3008458,"Los Angeles County",3107.03,"06037310703"
"1004817","LAKE LIQUOR","101 E ANTELOPE AVE, WOODLAKE, CA 93286",36.4153033,-119.0985226,"Tulare County",7.02,"06107000702"
"1013066","VALERO MART","101 E AVE J, LANCASTER, CA 93535",34.6966997,-118.1294623,"Los Angeles County",9006.06,"06037900606"
"1033678","NEW ALPHA SMOKE SHOP AND NOVELTY","101 E BIG BEAR BLVD, BIG BEAR CITY, CA 92314",34.2613723,-116.8453814,"San Bernardino County",114.01,"06071011401"
"1032256","OAKLEY CHEVRON","101 E CYPRESS RD, OAKLEY, CA 94561",37.9903991,-121.6963734,"Contra Costa County",3020.08,"06013302008"
"679333","MOUNTAIN VIEW UNOCAL","101 E EL CAMINO REAL, MOUNTAIN VIEW, CA 94040",37.37989,-122.0729094,"Santa Clara County",5099.02,"06085509902"
"1002273","ANDYS LIQUOR","101 E EL ROBLAR DR, OJAI, CA 93023",34.4481684,-119.2762234,"Ventura County",10.02,"06111001002"
"1030659","QUICK MART #210","101 E FOOTHILL BLVD #5, POMONA, CA 91767",34.108256,-117.7490078,"Los Angeles County",4017.01,"06037401701"
"1031090","WFG 80020","101 E HOLT AVE, POMONA, CA 91767",34.0627639,-117.7498612,"Los Angeles County",4088,"06037408800"
"1004266","G & M OIL #103","101 E LAMBERT RD, LA HABRA, CA 90631",33.9248665,-117.9457109,"Orange County",13.04,"06059001304"
"1016951","G'S FOOD MART","101 E LAS PALMAS AV, PATTERSON, CA 95363",37.4729746,-121.127407,"Stanislaus County",32.01,"06099003201"
"673047","RAMZI'S UNOCAL","101 E LAS TUNAS DR, SAN GABRIEL, CA 91776",34.1031837,-118.0993101,"Los Angeles County",4802.02,"06037480202"
"1033861","CALIPATRIA QUEEN MARKET","101 E MAIN ST, CALIPATRIA, CA 92233",33.1253958,-115.5138814,"Imperial County",101.02,"06025010102"
"1033990","DONUT AVE #5","101 E THIRD ST, CALEXICO, CA 92231",32.6680252,-115.4972856,"Imperial County",121,"06025012100"
"689267","CHEVRON #1479","101 E VALLEY BL, RIALTO, CA 92376",34.0701376,-117.3695819,"San Bernardino County",36.12,"06071003612"
"1025119","ALBERTSONS 49-6132","101 E WILLOW ST, LONG BEACH, CA 90806",33.8056952,-118.1923264,"Los Angeles County",5722.02,"06037572202"
"1035831","ALBERTSONS 49-0132","101 E WILLOW ST, LONG BEACH, CA 90806",33.8056952,-118.1923264,"Los Angeles County",5722.02,"06037572202"
"1027880","LA HABRA SHELL","101 EAST IMPERIAL HWY, LA HABRA, CA 90631",33.9177552,-117.9458038,"Orange County",13.03,"06059001303"
"675886","RALPHS GROCERY #123","101 G ST, SAN DIEGO, CA 92101",32.7121107,-117.1633202,"San Diego County",53,"06073005300"
"679034","KWIK PIK MARKET","101 GOLF COURSE DR BLG E, ROHNERT PARK, CA 94928",38.363632,-122.709166,"Sonoma County",1513.07,"06097151307"
"1020299","MICKEYS DELI","101 HERMOSA AV, HERMOSA BEACH, CA 90254",33.854307,-118.3982216,"Los Angeles County",6211.04,"06037621104"
"1035216","WAYNES CHEVRON","101 LAKE BLVD, REDDING, CA 96003",40.6114458,-122.378265,"Shasta County",107.04,"06089010704"
"683332","7-ELEVEN 2364-24611","101 MAIN ST, CHICO, CA 95928",39.7311822,-121.8405493,"Butte County",10,"06007001000"
"642442","TRINIDAD CHEVRON #732","101 MAIN ST, TRINIDAD, CA 95570",41.0619336,-124.1405499,"Humboldt County",102,"06023010200"
"677946","MILAD'S CHEVRON","101 N AZUSA AV, AZUSA, CA 91702",34.1219597,-117.9080742,"Los Angeles County",4044.01,"06037404401"
"1034225","VILLAGE LIQUOR MARKET","101 N BASQUE AV, FULLERTON, CA 92833",33.8705406,-117.9509371,"Orange County",110,"06059011000"
"694449","VILLAGE MARKET","101 N BASQUE AV, FULLERTON, CA 92833",33.8705406,-117.9509371,"Orange County",110,"06059011000"
"1021170","AJ GROCERY EXPRESS","101 N DEPOT ST #A, SANTA MARIA, CA 93454",34.9532149,-120.4439935,"Santa Barbara County",24.03,"06083002403"
"1029365","HELLO LIQUOR","101 N GAFFEY ST, SAN PEDRO, CA 90731",33.7434895,-118.2925978,"Los Angeles County",2966,"06037296600"
"1034167","HELLO LIQUOR","101 N GAFFEY ST, SAN PEDRO, CA 90731",33.7434895,-118.2925978,"Los Angeles County",2966,"06037296600"
"1003771","ARCO AM/PM","101 N GATEWAY DR, MADERA, CA 93637",36.9616913,-120.060578,"Madera County",8,"06039000800"
"249312","HI-COUNTRY MARKET","101 N MAIN ST, BIG PINE, CA 93513",37.1664681,-118.2895378,"Inyo County",5,"06027000500"
"1024529","7-ELEVEN 2366-39470","101 N MCDOWELL BLVD, PETALUMA, CA 94954",38.2492343,-122.6263996,"Sonoma County",1506.03,"06097150603"
"1033857","PETALUMA 76","101 N MCDOWELL BLVD, PETALUMA, CA 94954",38.2492343,-122.6263996,"Sonoma County",1506.03,"06097150603"
"693333","PAUL'S LIQUOR","101 N OCEAN AV, CAYUCOS, CA 93430",35.4486725,-120.9045729,"San Luis Obispo County",105.04,"06079010504"
"1017073","PAYLESS LIQUORS","101 N SACRAMENTO ST, LODI, CA 95240",38.135556,-121.272341,"San Joaquin County",42.04,"06077004204"
"1018612","TURLOCK PROJECT INC","101 N TULLY RD, TURLOCK, CA 95380",37.4930361,-120.8677759,"Stanislaus County",38.04,"06099003804"
"1015471","PRIME LIQUOR & JR MARKET","101 N VICTORY BL #D & E, BURBANK, CA 91502",34.173791,-118.316912,"Los Angeles County",3108,"06037310800"
"1006055","QUICK GASOLINE MINI MART","101 N VINEYARD AVE, ONTARIO, CA 91764",34.063947,-117.61133,"San Bernardino County",15.04,"06071001504"
"1003623","RALPHS GROCERY #54","101 OLD GROVE RD, OCEANSIDE, CA 92057",33.2296938,-117.3071477,"San Diego County",185.07,"06073018507"
"1017381","CVS PHARMACY #8894","101 REDLANDS MALL, REDLANDS, CA 92373",34.0564233,-117.1843556,"San Bernardino County",81,"06071008100"
"1013223","USA CHECKS CASHED #255","101 S COAST HWY, OCEANSIDE, CA 92054",33.1948477,-117.3788842,"San Diego County",184,"06073018400"
"1026418","SIX STAR CHEVRON","101 S GATEWAY DR, MADERA, CA 93637",36.9611555,-120.0601454,"Madera County",8,"06039000800"
"1015658","MOONLIGHT MARKET","101 S MEADOWBROOK DR, SAN DIEGO, CA 92114",32.7022607,-117.0302827,"San Diego County",31.07,"06073003107"
"682792","CHEVRON #1844","101 S SEPULVEDA BL, EL SEGUNDO, CA 90245",33.9157925,-118.3966257,"Los Angeles County",9800.3,"06037980030"
"1023450","NAS COFFEE","101 SPEAR ST  STE A9, SAN FRANCISCO, CA 94105",37.7924983,-122.3931387,"San Francisco County",615,"06075061500"
"1021445","DOWNIEVILLE GROCERY","101 SUNNYSIDE DR, DOWNIEVILLE, CA 95936",39.5605065,-120.8287962,"Sierra County",100,"06091010000"
"693210","EXPRESS CONVENIENCE","101 W BROADWAY #101, SAN DIEGO, CA 92101",32.7150374,-117.1641904,"San Diego County",53,"06073005300"
"1012315","SEASIDE SHELL & MARKET","101 W CARRILLO ST, SANTA BARBARA, CA 93101",34.4199811,-119.7028792,"Santa Barbara County",10,"06083001000"
"1019250","DESTINY CHEVRON","101 W COMPTON BL, COMPTON, CA 90220",33.8963822,-118.2250452,"Los Angeles County",5426.02,"06037542602"
"1026221","ACR RANCH MARKET","101 W EL PORTAL, SAN CLEMENTE, CA 92672",33.4304184,-117.6215452,"Orange County",421.07,"06059042107"
"1016520","CVS PHARMACY #9780","101 W FOOTHILL BLVD, AZUSA, CA 91702",34.133937,-117.9079172,"Los Angeles County",4006.02,"06037400602"
"1022607","RIALTO 76","101 W FOOTHILL BLVD, RIALTO, CA 92376",34.1064189,-117.3709483,"San Bernardino County",37,"06071003700"
"479911","7-ELEVEN 2174-19200","101 W KATELLA AV, ANAHEIM, CA 92802",33.8037847,-117.9070624,"Orange County",9800,"06059980000"
"680242","RALPHS GROCERY #723","101 W LOS ANGELES AV, MOORPARK, CA 93021",34.280255,-118.8834206,"Ventura County",76.11,"06111007611"
"550296","CALIPATRIA QUEEN MARKET","101 W MAIN ST, CALIPATRIA, CA 92233",33.1257783,-115.5164803,"Imperial County",101.02,"06025010102"
"1024297","SUBS CAFE","101 W MISSION BLVD #107, POMONA, CA 91766",34.055562,-117.7505364,"Los Angeles County",4088,"06037408800"
"1003255","FASTRIP FOOD STORE #702","101 W VISALIA RD, FARMERSVILLE, CA 93223",36.2973831,-119.2076318,"Tulare County",16.01,"06107001601"
"1024230","WHITTIER OIL #44","101 WHITTIER BLVD, LA HABRA, CA 90631",33.939425,-117.9464882,"Orange County",14.01,"06059001401"
"1031973","ARCO AM/PM","1010 4TH ST, SANTA ROSA, CA 95404",38.4435758,-122.7066478,"Sonoma County",1522.03,"06097152203"
"1034328","SMOKE RINGS 2","1010 E AVE K, LANCASTER, CA 93535",34.6749404,-118.1117844,"Los Angeles County",9005.04,"06037900504"
"1021000","SUPERIOR SUPER WAREHOUSE #133","1010 E AVENUE J, LANCASTER, CA 93535",34.6879644,-118.1119906,"Los Angeles County",9005.05,"06037900505"
"1030931","SMOKE N VAPE","1010 E BASTONCHURRY RD, FULLERTON, CA 92835",33.8987643,-117.9120583,"Orange County",16.01,"06059001601"
"1017999","GOODFELLOW MARKET","1010 E BROADWAY, GLENDALE, CA 91205",34.1460375,-118.242515,"Los Angeles County",3022.01,"06037302201"
"1035656","SNR FUEL","1010 E WASHINGTON BLVD, PASADENA, CA 91104",34.168868,-118.1298169,"Los Angeles County",4624,"06037462400"
"633407","BIG 10 VIDEO","1010 EL CAMINO AV #AA, SACRAMENTO, CA 95815",38.6105426,-121.4432676,"Sacramento County",69,"06067006900"
"1028174","CIRCLE K","1010 FAIRWAY DR, CITY OF INDUSTRY, CA 91789",33.9971305,-117.8700231,"Los Angeles County",4033.03,"06037403303"
"632680","7-ELEVEN 2366-15969","1010 HILLSIDE BL, DALY CITY, CA 94014",37.6895851,-122.4614882,"San Mateo County",6013,"06081601300"
"1028333","SAM'S FOOD MART","1010 LUCERN AVE, MODESTO, CA 95350",37.6525757,-120.9802455,"Stanislaus County",10.02,"06099001002"
"1022384","LUCKY ONE MINI MART","1010 MARKET ST, SAN FRANCISCO, CA 94102",37.7820321,-122.4109628,"San Francisco County",125.01,"06075012501"
"1031609","LA PRINCESA MARKET","1010 N ALTA AVE, DINUBA, CA 93618",36.5539311,-119.3937992,"Tulare County",4.02,"06107000402"
"683725","MOBIL GAS STATION","1010 N SOTO ST, LOS ANGELES, CA 90033",34.0532651,-118.2032548,"Los Angeles County",2032,"06037203200"
"1021393","OLIVE DRIVE SHELL","1010 OLIVE DR, DAVIS, CA 95616",38.540967,-121.7378267,"Yolo County",106.02,"06113010602"
"1032804","OLIVE DRIVE SHELL #20","1010 OLIVE DR, DAVIS, CA 95616",38.540967,-121.7378267,"Yolo County",106.02,"06113010602"
"689654","JOES MARKET","1010 POSA DR, WASCO, CA 93280",35.5873728,-119.3369621,"Kern County",44.02,"06029004402"
"1008249","7-ELEVEN 2131-33711","1010 SECOND AV STE 100A, SAN DIEGO, CA 92101",32.7162522,-117.1633619,"San Diego County",53,"06073005300"
"1005967","EL BAJIO SUPERMARKET","1010 W 16TH ST, MERCED, CA 95340",37.3030476,-120.4921182,"Merced County",13.01,"06047001301"
"1028447","M & S MINI MART","1010 W LOS PALMAS AVE STE 4, PATTERSON, CA 95363",37.4662753,-121.1413288,"Stanislaus County",32.02,"06099003202"
"1006215","DRIVE IN LIQUORS","1010 W MAIN ST, SANTA MARIA, CA 93454",34.952898,-120.44988,"Santa Barbara County",24.03,"06083002403"
"687570","RIMON'S SHELL","1010 W MARTIN  LUTHER KING JR, LOS ANGELES, CA 90037",34.0104821,-118.2940704,"Los Angeles County",2316,"06037231600"
"1037056","SMART & FINAL #366","10100 S. CRENSHAW BLVD., INGLEWOOD, CA 90303",33.9447217,-118.3258303,"Los Angeles County",6006.01,"06037600601"
"1028955","KENK USA #42108","10101 BALBOA BLVD, NORTHRIDGE, CA 91325",34.2541083,-118.5027253,"Los Angeles County",1113.02,"06037111302"
"694889","PRESTIGE LIQUOR","10101 CAMARILLO ST, NORTH HOLLYWOOD, CA 91602",34.1585082,-118.3522455,"Los Angeles County",1256,"06037125600"
"1025705","ALL STAR GAS & FOODMART","10109 FOLSOM BLVD, RANCHO CORDOVA, CA 95670",38.5823372,-121.3175473,"Sacramento County",89.11,"06067008911"
"1034257","RANCHO EXPRESS","10109 FOLSOM BLVD, RANCHO CORDOVA, CA 95670",38.5823372,-121.3175473,"Sacramento County",89.11,"06067008911"
"693987","BROADWAY WINE & SPIRITS","1011 BROADWAY ST, SANTA MONICA, CA 90401",34.0200854,-118.4877736,"Los Angeles County",7017.02,"06037701702"
"1027504","MENA'S LIQUOR","1011 N EUCLID AV, ANAHEIM, CA 92801",33.8460599,-117.9422234,"Orange County",867.02,"06059086702"
"1032186","LOMPOC SMOKE SHOP","1011 N H STREET, LOMPOC, CA 93436",34.6538126,-120.4602516,"Santa Barbara County",28.02,"06083002802"
"1030957","FILLCO","1011 S IMPERIAL AVE, CALEXICO, CA 92231",32.6786671,-115.4989206,"Imperial County",121,"06025012100"
"1031367","SHOP N GO","10110 FOOTHILL BLVD, RANCHO CUCAMONGA, CA 91730",34.1072974,-117.5840142,"San Bernardino County",20.28,"06071002028"
"1023508","MISSION 60 AM/PM","10112 MISSION BL, RIVERSIDE, CA 92509",34.016407,-117.5060814,"Riverside County",405.02,"06065040502"
"684458","STATER BROS 147","10114 ADAMS AVE, HUNTINGTON BEACH, CA 92646",33.6709236,-117.952283,"Orange County",992.17,"06059099217"
"1008013","SIERRA VALERO","10115 SIERRA AV, FONTANA, CA 92335",34.0699179,-117.4352214,"San Bernardino County",33.02,"06071003302"
"1011419","ROSEDALE LIQUOR","10117 ROSEDALE HWY, BAKERSFIELD, CA 93312",35.3831249,-119.1155223,"Kern County",38.11,"06029003811"
"1028430","J & R MARKET","10117 S NORMANDIE AVE, LOS ANGELES, CA 90044",33.9444452,-118.3004866,"Los Angeles County",6002.02,"06037600202"
"1033335","J & R MARKET","10117 S NORMANDIE AVE, LOS ANGELES, CA 90044",33.9444452,-118.3004866,"Los Angeles County",6002.02,"06037600202"
"1035291","7 STAR MARKET","10117 S NORMANDIE AVE, LOS ANGELES, CA 90044",33.9444452,-118.3004866,"Los Angeles County",6002.02,"06037600202"
"1024265","DUKES LIQUOR","1012 E FLORENCE AVE, LOS ANGELES, CA 90001",33.9746034,-118.2572287,"Los Angeles County",2395.01,"06037239501"
"1024042","TOP HAT LIQUOR","1012 E MAIN ST, BARSTOW, CA 92311",34.8981431,-117.0127163,"San Bernardino County",95,"06071009500"
"379257","GARDENA SUPERMARKET","1012 W GARDENA BL, GARDENA, CA 90247",33.8813212,-118.2920891,"Los Angeles County",6031.02,"06037603102"
"106662","SIERRA MINIT MART # 2","1012 W HENDERSON AV, PORTERVILLE, CA 93257",36.0807796,-119.0402686,"Tulare County",35.02,"06107003502"
"1031427","L A DONUTS","1012 W ROSECRANS AVE, GARDENA, CA 90247",33.901161,-118.2922226,"Los Angeles County",6030.01,"06037603001"
"1007801","QUICK STOP MARKET #2","10120 25TH ST, RANCHO CUCAMONGA, CA 91730",34.094656,-117.584111,"San Bernardino County",21.07,"06071002107"
"1021303","ARCO AM/PM","10121 WHITTIER BLVD, WHITTIER, CA 90606",33.9950633,-118.0707585,"Los Angeles County",5012,"06037501200"
"1006378","MARINA FOOD","10122 BANDLEY DR, CUPERTINO, CA 95014",37.324626,-122.0338227,"Santa Clara County",5078.06,"06085507806"
"1035117","99 CENT AND SMOKE SHOP","10122 S FIGUEROA ST #G, LOS ANGELES, CA 90003",33.9439443,-118.2820835,"Los Angeles County",2404.02,"06037240402"
"1019395","RANCHO CORDOVA LODGE #2357","10124 COLOMA RD, RANCHO CORDOVA, CA 95670",38.5901387,-121.3028115,"Sacramento County",89.05,"06067008905"
"1023088","LOTTO LIQUORS","10125 INTERNATIONAL BL, OAKLAND, CA 94603",37.7415245,-122.1688835,"Alameda County",4093,"06001409300"
"687436","SAM'S MARKET & LIQUOR","1013 E PALMDALE BL, PALMDALE, CA 93550",34.5797847,-118.1112506,"Los Angeles County",9105.01,"06037910501"
"1022019","LA COLONIAL MARKET","1013 S CENTRE ST, SAN PEDRO, CA 90731",33.7348579,-118.2837469,"Los Angeles County",2971.1,"06037297110"
"1032552","LIQUOR & JOY","1013 W EL SEGUNDO, GARDENA, CA 90247",33.9168043,-118.2923933,"Los Angeles County",6028.02,"06037602802"
"1003489","SAIGON SUPERMARKET","10131 WESTMINSTER BL, GARDEN GROVE, CA 92843",33.7596173,-117.9527568,"Orange County",889.02,"06059088902"
"1020331","CENTRAL AVENUE MARKET","10132 CENTRAL AV, MONTCLAIR, CA 91763",34.0698428,-117.6904255,"San Bernardino County",2.08,"06071000208"
"683061","7-ELEVEN 2111-20245","10133 MAINE AVE, LAKESIDE, CA 92040",32.8626222,-116.921733,"San Diego County",168.04,"06073016804"
"1024313","7-ELEVEN 2136-39609","10133 SAN FERNANDO RD, PACOIMA, CA 91331",34.2541745,-118.4100489,"Los Angeles County",1048.1,"06037104810"
"1032308","SUPERIOR DONUTS #2","10137 ROSECRANS AVE, BELLFLOWER, CA 90706",33.9022524,-118.1172968,"Los Angeles County",5532,"06037553200"
"1037443","7-ELEVEN 2176-38088","1014 E. PACIFIC COAST HWY, LONG BEACH, CA 90806",33.7896616,-118.180205,"Los Angeles County",5752.01,"06037575201"
"1032521","SOUTH BAY LIQUOR","1014 WILMINGTON BL, WILMINGTON, CA 90744",33.7827287,-118.2740819,"Los Angeles County",2945.1,"06037294510"
"693378","SOUTH BAY LIQUOR","1014 WILMINGTON BL, WILMINGTON, CA 90744",33.7827287,-118.2740819,"Los Angeles County",2945.1,"06037294510"
"694381","ONE STOP MARKET","10143 GRAYSON RD, PATTERSON, CA 95363",37.561288,-121.1778872,"Stanislaus County",33,"06099003300"
"692585","TOADSTOOL","10143 S ATLANTIC BL, SOUTH GATE, CA 90280",33.9391009,-118.1821307,"Los Angeles County",5361.03,"06037536103"
"1008029","TED'S LIQUOR","10145 ATLANTIC AVE, SOUTH GATE, CA 90280",33.9390852,-118.1821028,"Los Angeles County",5361.03,"06037536103"
"1034193","TED'S LIQUOR","10145 ATLANTIC AVE, SOUTH GATE, CA 90280",33.9390852,-118.1821028,"Los Angeles County",5361.03,"06037536103"
"1012865","PACIFIC SUPERMARKET","1015 EL CAMINO REAL, SOUTH SAN FRANCISCO, CA 94080",37.6549588,-122.435328,"San Mateo County",6018,"06081601800"
"1029870","JKSD GAS AND MINI MART","1015 HARTNELL AV, REDDING, CA 96002",40.5635153,-122.3528411,"Shasta County",112.09,"06089011209"
"694598","CENTURY CHEVRON","1015 JEFFERSON BL, WEST SACRAMENTO, CA 95691",38.5746646,-121.5238869,"Yolo County",102.01,"06113010201"
"1029264","ARCO AM/PM","1015 MAIN STREET, RAMONA, CA 92065",33.0421302,-116.8690649,"San Diego County",208.06,"06073020806"
"1018466","CVS PHARMACY #9601","1015 N SAN FERNANDO BL, BURBANK, CA 91504",34.1871559,-118.3192444,"Los Angeles County",3106.01,"06037310601"
"1034637","MI TIENDITA MAX","1015 S FAIRVIEW ST, SANTA ANA, CA 92704",33.7353495,-117.9060548,"Orange County",748.05,"06059074805"
"449549","99 RANCH MARKET","1015 S NOGALES, ROWLAND HEIGHTS, CA 91748",33.9967912,-117.8906382,"Los Angeles County",4082.11,"06037408211"
"674717","COLONIAL LIQUOR","1015 TAMALPAIS AV, SAN RAFAEL, CA 94901",37.9728339,-122.5228328,"Marin County",1110,"06041111000"
"691414","SUN VALLEY FINE FOODS","1015 TERRA NOVA BL, PACIFICA, CA 94044",37.5827019,-122.4754298,"San Mateo County",6033,"06081603300"
"524442","STALLION MKT","10150 STONEHURST ST, SUN VALLEY, CA 91352",34.254724,-118.372971,"Los Angeles County",1033,"06037103300"
"1031755","ON THE WAY LIQUOR","10150 WARNER AVE, FOUNTAIN VALLEY, CA 92708",33.7159801,-117.9519702,"Orange County",992.51,"06059099251"
"533162","HUNTSBERRY LIQUORS","10151 FOOTHILL BL, OAKLAND, CA 94605",37.7449399,-122.1542562,"Alameda County",4101,"06001410100"
"1021894","P & A FOOD & LIQUOR","10152 COLOMA RD, RANCHO CORDOVA, CA 95670",38.5910066,-121.3029906,"Sacramento County",89.05,"06067008905"
"1025765","FUTURE INKLINGS INC","10159 ALONDRA BLVD, BELLFLOWER, CA 90706",33.889711,-118.117744,"Los Angeles County",5541.04,"06037554104"
"1027838","EL BRILLANTE MARKET","1016 E MAIN ST, SANTA PAULA, CA 93060",34.3538617,-119.0594059,"Ventura County",6,"06111000600"
"1003644","TONYS LIQUOR","1016 W COMPTON BLVD, COMPTON, CA 90220",33.8955601,-118.2421467,"Los Angeles County",5429,"06037542900"
"1033900","TONYS LIQUOR","1016 W COMPTON BLVD, COMPTON, CA 90220",33.8955601,-118.2421467,"Los Angeles County",5429,"06037542900"
"1024381","LILY'S BAKERY","10161 BOLSA AV #109B, WESTMINSTER, CA 92683",33.7456772,-117.952187,"Orange County",889.04,"06059088904"
"1035913","LILY'S BAKERY","10161 BOLSA AV #109B, WESTMINSTER, CA 92683",33.7456772,-117.952187,"Orange County",889.04,"06059088904"
"1031053","BAMBU","10161 BOLSA AVE #109A, WESTMINSTER, CA 92683",33.7456772,-117.952187,"Orange County",889.04,"06059088904"
"1030928","JF DISCOUNT STORE","10162 E VALLEY BLVD, EL MONTE, CA 91731",34.0771003,-118.0488626,"Los Angeles County",4328.01,"06037432801"
"1027103","FAIRVIEW MARKET","1017 COOMBSVILLE RD, NAPA, CA 94558",38.2972726,-122.2692698,"Napa County",2003.02,"06055200302"
"1031104","BS 97 CENTS PLUS","1017 E 10TH ST, LONG BEACH, CA 90813",33.7791124,-118.1802431,"Los Angeles County",5764.01,"06037576401"
"1037450","AC 96 CENTS PLUS","1017 E 10TH ST, LONG BEACH, CA 90813",33.7791124,-118.1802431,"Los Angeles County",5764.01,"06037576401"
"1032105","PALMER MARKET","1017 E PALMER AVE, GLENDALE, CA 91205",34.132739,-118.2424047,"Los Angeles County",3025.06,"06037302506"
"674184","7-ELEVEN 2368-18828","1017 N BROADWAY, SANTA MARIA, CA 93454",34.963024,-120.4361101,"Santa Barbara County",23.03,"06083002303"
"1024900","$1 STORE","1017 W GARDENA BLVD, GARDENA, CA 90247",33.8818582,-118.2920537,"Los Angeles County",6031.01,"06037603101"
"1032450","GLEN AVON SHELL","10171 MISSION HWY 60, RIVERSIDE, CA 92509",34.017334,-117.5063921,"Riverside County",405.03,"06065040503"
"1003483","VALLARTA SUPERMARKET #18","10175 N  SAN FERNANDO, PACOIMA, CA 91331",34.2550317,-118.4108103,"Los Angeles County",1048.1,"06037104810"
"1025059","ALBERTSONS 41-6355","1018 CASITAS PASS RD, CARPINTERIA, CA 93013",34.3948651,-119.5121084,"Santa Barbara County",16.04,"06083001604"
"1035708","ALBERTSONS 41-0355","1018 CASITAS PASS RD, CARPINTERIA, CA 93013",34.3948651,-119.5121084,"Santa Barbara County",16.04,"06083001604"
"1006900","EASTSIDE CHECKS CASHED","1018 E AVENUE J, LANCASTER, CA 93535",34.6894176,-118.1120837,"Los Angeles County",9005.05,"06037900505"
"1020109","SAN GABRIEL LIQUOR","1018 S SAN GABRIEL BLVD, SAN GABRIEL, CA 91776",34.0892006,-118.0906073,"Los Angeles County",4814.02,"06037481402"
"1026677","CVS PHARMACY #9605","10181 RESEDA BLVD, NORTHRIDGE, CA 91324",34.2556597,-118.5374073,"Los Angeles County",1112.05,"06037111205"
"1004571","ALTA SIERRA MARKET","10182 ALTA SIERRA DR, GRASS VALLEY, CA 95949",39.1403968,-121.069173,"Nevada County",1.04,"06057000104"
"674932","DAVIES BROTHERS CHEVRON","1019 BRIDGE ST, COLUSA, CA 95932",39.204534,-122.003701,"Colusa County",2,"06011000200"
"1013701","EL TEJON MINI MARKET","1019 EL TEJON AVE, BAKERSFIELD, CA 93308",35.4178979,-119.042835,"Kern County",2,"06029000200"
"1012487","LOS ALTOS MARKET","1019 W CARSON ST, TORRANCE, CA 90502",33.8318682,-118.2931649,"Los Angeles County",5435.03,"06037543503"
"1012588","KING'S FOODTOWN SUPERMARKET","1019 W MARTIN L KING BL, LOS ANGELES, CA 90037",34.0117398,-118.2923319,"Los Angeles County",2312.2,"06037231220"
"381484","7-ELEVEN 2111-26651","10195 RIVERFORD RD, LAKESIDE, CA 92040",32.8611686,-116.9468028,"San Diego County",169.01,"06073016901"
"690036","CATALINA LIQUOR","102 AVENIDA VICTORIA #C & D, SAN CLEMENTE, CA 92672",33.4263157,-117.6144717,"Orange County",421.08,"06059042108"
"1035955","SAN DIMAS SERVICE STATION","102 E ARROW HWY, SAN DIMAS, CA 91773",34.102656,-117.8066546,"Los Angeles County",4003.04,"06037400304"
"1023844","CAMPUS 76","102 E CARMEL ST, SAN MARCOS, CA 92078",33.1361968,-117.1633959,"San Diego County",203.06,"06073020306"
"1033243","7-ELEVEN 2175-39764","102 E HUNTINGTON DR, ARCADIA, CA 91006",34.1396534,-118.0278975,"Los Angeles County",4308.01,"06037430801"
"1023752","M & M LIQUOR","102 E MISSION RD, FALLBROOK, CA 92028",33.3848083,-117.2511808,"San Diego County",189.03,"06073018903"
"1027209","ARCO AM/PM","102 E YORBA LINDA BLVD, PLACENTIA, CA 92870",33.8876796,-117.8654603,"Orange County",117.11,"06059011711"
"1029229","SANTA PAULA SHELL","102 HALLOCK DR, SANTA PAULA, CA 93060",34.3552501,-119.0473756,"Ventura County",5,"06111000500"
"1033761","MOLLER RETAIL #6122","102 HALLOCK DR, SANTA PAULA, CA 93060",34.3552501,-119.0473756,"Ventura County",5,"06111000500"
"679677","7-ELEVEN 2112-13627","102 LEUCADIA BL, ENCINITAS, CA 92024",33.0649967,-117.3016403,"San Diego County",177.01,"06073017701"
"1035425","ALVORD STREET MINI MART","102 N ALVORD ST, RIDGECREST, CA 93555",35.623002,-117.675063,"Kern County",54.02,"06029005402"
"690097","ALVORD STREET MINI MART","102 N ALVORD ST, RIDGECREST, CA 93555",35.623002,-117.675063,"Kern County",54.02,"06029005402"
"1029754","BROADWAY LIQUOR","102 N BROADWAY ST, FRESNO, CA 93701",36.7442351,-119.8026565,"Fresno County",6,"06019000600"
"690314","QUICK CORNER MARKET","102 N COAST HWY, OCEANSIDE, CA 92054",33.1954607,-117.3787024,"San Diego County",184,"06073018400"
"1026674","CVS PHARMACY #9583","102 N MAIN ST, SANTA ANA, CA 92701",33.7457551,-117.8679614,"Orange County",750.02,"06059075002"
"1027480","PEARSONVILLE SHELL","102 N PEARSON RD, PEARSONVILLE, CA 93527",35.7986529,-117.8716689,"Inyo County",8,"06027000800"
"1017900","CVS PHARMACY #9160","102 N SAN GABRIEL BLVD, SAN GABRIEL, CA 91775",34.1038005,-118.0905543,"Los Angeles County",4801.02,"06037480102"
"1030946","BLOSSOM VALLEY 76","102 POUGHKEEPSIE RD, SAN JOSE, CA 95123",37.2510494,-121.8045745,"Santa Clara County",5120.29,"06085512029"
"679838","COST LESS MARKET","102 S 11TH AV, HANFORD, CA 93230",36.3222788,-119.6558432,"Kings County",10.02,"06031001002"
"1018838","CVS PHARMACY #8943","102 S SANDERSON AVE, SAN JACINTO, CA 92582",33.786714,-117.0075597,"Riverside County",435.17,"06065043517"
"1033670","LA DONUTS & CROISSANTS","102 S VERMONT AVE, LOS ANGELES, CA 90004",34.0726188,-118.2912584,"Los Angeles County",2111.22,"06037211122"
"1013450","QUIK SHOP #2","102 TABLE MOUNTAIN BL, OROVILLE, CA 95965",39.5223793,-121.555245,"Butte County",25,"06007002500"
"1036671","QUIK SHOP #2","102 TABLE MOUNTAIN BL, OROVILLE, CA 95965",39.5223793,-121.555245,"Butte County",25,"06007002500"
"1033358","ROSSLYN FOOD MART","102 W 5TH ST, LOS ANGELES, CA 90013",34.0466829,-118.2488706,"Los Angeles County",2073.02,"06037207302"
"1028617","UNITED OIL #3","102 W MISSION, ESCONDIDO, CA 92025",33.1305265,-117.0858488,"San Diego County",202.14,"06073020214"
"1029860","STATE MARKET","1020 CECIL AVE, DELANO, CA 93215",35.7750147,-119.2446488,"Kern County",50.04,"06029005004"
"1036075","STATE MARKET","1020 CECIL AVE, DELANO, CA 93215",35.7750147,-119.2446488,"Kern County",50.04,"06029005004"
"1017689","UNIQUE LIQUOR & MARKET","1020 E BROADWAY, GLENDALE, CA 91205",34.146114,-118.2419651,"Los Angeles County",3022.01,"06037302201"
"1009378","FASHION FAIR CHEVRON","1020 E SHAW AVE, FRESNO, CA 93710",36.8089214,-119.7717413,"Fresno County",54.03,"06019005403"
"1035144","FASHION FAIR CHEVRON","1020 E SHAW AVE, FRESNO, CA 93710",36.8089214,-119.7717413,"Fresno County",54.03,"06019005403"
"1022840","RALEY'S AISLE 1 #177","1020 EMERALD BAY RD, SOUTH LAKE TAHOE, CA 96150",38.9126678,-120.004568,"El Dorado County",304.02,"06017030402"
"1013421","BILL'S MARKET #3","1020 HOPPER AVE, SANTA ROSA, CA 95403",38.4793142,-122.7393036,"Sonoma County",1528.01,"06097152801"
"1035337","HOPPER MARKET","1020 HOPPER AVE, SANTA ROSA, CA 95403",38.4793142,-122.7393036,"Sonoma County",1528.01,"06097152801"
"688657","SAFEWAY 14-1824","1020 JOHNSON LN, SOUTH LAKE TAHOE, CA 96150",38.9440786,-119.9672782,"El Dorado County",302,"06017030200"
"683320","7-ELEVEN 2364-14074","1020 LINCOLN RD, YUBA CITY, CA 95991",39.1123454,-121.6278593,"Sutter County",504.01,"06101050401"
"1019344","RILEY STREET CHEVRON","1020 RILEY ST, FOLSOM, CA 95630",38.6705269,-121.1657777,"Sacramento County",84.03,"06067008403"
"430177","7-ELEVEN 2172-18167","1020 S BRISTOL AV, SANTA ANA, CA 92703",33.7348634,-117.8855619,"Orange County",748.06,"06059074806"
"683946","DAWN DONUT","1020 S WHITE RD #G, SAN JOSE, CA 95127",37.3581875,-121.8203005,"Santa Clara County",5041.02,"06085504102"
"1023000","7-ELEVEN 2367-35065","1020 TERVEN AVE, SALINAS, CA 93901",36.663439,-121.6294233,"Monterey County",145,"06053014500"
"1027135","GREEN PLANET GAS & DIESEL","1020 W ANAHEIM ST, WILMINGTON, CA 90744",33.779095,-118.2751549,"Los Angeles County",2949,"06037294900"
"1016344","ARTESIA 5220-ARCO","10201 E ARTESIA BL, BELLFLOWER, CA 90706",33.8732738,-118.1169092,"Los Angeles County",5544.06,"06037554406"
"1029484","EL CARIBE LIQUOR MARKET","10201 VALLEY BLVD, EL MONTE, CA 91731",34.0773441,-118.0479764,"Los Angeles County",4328.01,"06037432801"
"671711","KAVITA GROCERY","10201 VENICE BL, LOS ANGELES, CA 90034",34.0218556,-118.40218,"Los Angeles County",2699.05,"06037269905"
"229729","7-ELEVEN 2111-22481","10205 LK JENNINGS PK, LAKESIDE, CA 92040",32.861098,-116.9005737,"San Diego County",168.04,"06073016804"
"1017278","CVS PHARMACY #9655","10208 BALBOA BL, GRANADA HILLS, CA 91344",34.255929,-118.5014143,"Los Angeles County",1114,"06037111400"
"1030267","ONLY 99 CENTS & MORE","1021 4TH ST STE A, TAFT, CA 93268",35.1492487,-119.453983,"Kern County",35,"06029003500"
"494137","ADAMS SQUARE LIQUOR","1021 E CHEVY CHASE DR, GLENDALE, CA 91205",34.1340938,-118.2421945,"Los Angeles County",3025.04,"06037302504"
"1028882","PAUL'S LIQUOR","1021 E F ST, OAKDALE, CA 95361",37.7689797,-120.8396185,"Stanislaus County",2.03,"06099000203"
"1031524","FRESNO MALL 76 STATION","1021 E SHAW AVE, FRESNO, CA 93710",36.8082292,-119.7719061,"Fresno County",53.02,"06019005302"
"451487","FREEWAY 76 MART","1021 MURRAY RD, MCKINLEYVILLE, CA 95519",40.9565987,-124.1147971,"Humboldt County",104,"06023010400"
"1035326","CARBAUGH'S MARKET","1021 N A ST, LOMPOC, CA 93436",34.6538743,-120.4492778,"Santa Barbara County",28.02,"06083002802"
"538542","CARBAUGH'S MARKET","1021 N A ST, LOMPOC, CA 93436",34.6538743,-120.4492778,"Santa Barbara County",28.02,"06083002802"
"1024883","FREEWAY PARK MARKET","1021 N MORAGA ST, ANAHEIM, CA 92801",33.8465286,-117.9654902,"Orange County",868.02,"06059086802"
"1031117","EL SUPER TORO MARKET","1021 N SANTA FE AVE, VISTA, CA 92084",33.2132827,-117.2444799,"San Diego County",192.06,"06073019206"
"1015143","MICNAN LLC #54","1021 SARATOGA WAY, EL DORADO HILLS, CA 95762",38.6548607,-121.0709999,"El Dorado County",318,"06017031800"
"448324","CIRCLE K 5018","1021 SHAFFER RD, ATWATER, CA 95301",37.341529,-120.5963788,"Merced County",7.01,"06047000701"
"1030006","NMSO #68179","1021 SOUTH ST, ORLAND, CA 95963",39.7399389,-122.2032186,"Glenn County",101,"06021010100"
"1012782","7-ELEVEN 2111-34048","1021 W WASHINGTON AVE, EL CAJON, CA 92020",32.7874971,-116.9743443,"San Diego County",159.02,"06073015902"
"685975","GROG SHOP","10211 COLIMA RD, WHITTIER, CA 90603",33.9429083,-118.0113219,"Los Angeles County",5033.01,"06037503301"
"1008541","COUNTRY VILLAGE MARKET & DELI","10211 COUNTRY CLUB DR, MIRA LOMA, CA 91752",34.0228789,-117.5079749,"Riverside County",405.03,"06065040503"
"1028673","UNITED OIL #119","10211 E ALONDRA, BELLFLOWER, CA 90706",33.8895735,-118.1169823,"Los Angeles County",5531,"06037553100"
"678955","SUPERIOR SUPER WAREHOUSE #101","10211 S AVALON RD, LOS ANGELES, CA 90003",33.9433153,-118.2668094,"Los Angeles County",2406,"06037240600"
"1030211","i4 COFFEE CORP","10212 WESTMINSTER AVE, GARDEN GROVE, CA 92843",33.7591026,-117.951398,"Orange County",889.03,"06059088903"
"1036219","BIG 7 LIQUOR","10217 VENICE BLVD, LOS ANGELES, CA 90034",34.0216599,-118.4024593,"Los Angeles County",2699.05,"06037269905"
"1031369","KINGS MARKET","10218 INDIANA AVE, RIVERSIDE, CA 92503",33.9060053,-117.454179,"Riverside County",317.02,"06065031702"
"1031249","CIRCLE K #2955","10219 MAST BL, SANTEE, CA 92071",32.8547309,-116.9749012,"San Diego County",166.15,"06073016615"
"1030699","RANCHO VISTA 76","1022 W AVENUE P, PALMDALE, CA 93551",34.6018124,-117.7049967,"Los Angeles County",9001.02,"06037900102"
"1034953","RANCHO VISTA 76","1022 W AVENUE P, PALMDALE, CA 93551",34.6018124,-117.7049967,"Los Angeles County",9001.02,"06037900102"
"1024781","CIGARETTE 4 U #2","10222 MASON ST, CHATSWORTH, CA 91311",34.2561028,-118.5788813,"Los Angeles County",1133.22,"06037113322"
"1033347","CIGARETTE 4 U #2","10222 MASON ST, CHATSWORTH, CA 91311",34.2561028,-118.5788813,"Los Angeles County",1133.22,"06037113322"
"1008100","MR. LIQUOR","10227 MAST BL, SANTEE, CA 92071",32.8548087,-116.9745802,"San Diego County",166.15,"06073016615"
"685303","NEIGHBORHOOD MARKET","10227 S BROADWAY, LOS ANGELES, CA 90003",33.9429696,-118.2785925,"Los Angeles County",2405,"06037240500"
"1029697","STATER BROS 194","1023 N GRAND AVE, COVINA, CA 91724",34.0980587,-117.8732524,"Los Angeles County",4037.21,"06037403721"
"1037061","SMART & FINAL #733","1023 N. MT. VERNON AVE., COLTON, CA 92324",34.074546,-117.31423,"San Bernardino County",70,"06071007000"
"1014147","CONTINENTAL CURRENCY SERVICES #409","1023 S BRAND BLVD, GLENDALE, CA 91204",34.1336388,-118.2552002,"Los Angeles County",3024.01,"06037302401"
"1029773","ROSECRANS SPIRIT SHOP II","10231 ROSECRANS AVE, BELLFLOWER, CA 90706",33.9026634,-118.1155686,"Los Angeles County",5532,"06037553200"
"1029894","ESTRELLA MEAT MARKET","10236 LONG BEACH BVLD, LYNWOOD, CA 90262",33.9418598,-118.2147885,"Los Angeles County",5402.01,"06037540201"
"1019400","DIABLO CIRCLE K","1024 ALBERTA WAY, CONCORD, CA 94521",37.9456146,-121.9691571,"Contra Costa County",3553.01,"06013355301"
"682322","SAM'S MOBIL","1024 BREA CANYON RD, WALNUT, CA 91789",33.9997205,-117.8437059,"Los Angeles County",4033.22,"06037403322"
"1019343","BLUE RAVINE 76","1024 E BIDWELL ST, FOLSOM, CA 95630",38.6697644,-121.1540242,"Sacramento County",84.02,"06067008402"
"516757","MACLAY MARKET","1024 N MACLAY ST, SAN FERNANDO, CA 91340",34.293827,-118.4260574,"Los Angeles County",3201,"06037320100"
"1002971","ROD & ROS GAS FOOD MART #2","1024 WATER ST, SANTA CRUZ, CA 95062",36.9812808,-122.01113,"Santa Cruz County",1008,"06087100800"
"1028694","UNITED OIL #147","10243 E VALLEY BL, EL MONTE, CA 91731",34.0770418,-118.0468454,"Los Angeles County",4328.01,"06037432801"
"1023863","ON THE RUN WIRELESS","10245 SEPULVEDA BLVD, MISSION HILLS, CA 91345",34.2567958,-118.4677547,"Los Angeles County",1096.03,"06037109603"
"279788","7-ELEVEN 2365-14098","10246 MILLS STATION RD, RANCHO CORDOVA, CA 95670",38.583365,-121.3089132,"Sacramento County",90.08,"06067009008"
"296248","SAFEWAY 15-2242","1025 ALHAMBRA BL, SACRAMENTO, CA 95816",38.5716084,-121.4646287,"Sacramento County",15,"06067001500"
"187246","STATER BROS 054","1025 AMAR ST, WEST COVINA, CA 91792",34.0364526,-117.9250343,"Los Angeles County",4079,"06037407900"
"1024077","CARSON UNOCAL 76","1025 E CARSON ST, CARSON, CA 90745",33.8318854,-118.2569775,"Los Angeles County",5439.03,"06037543903"
"690626","VILLAGE LIQUOR","1025 E HERNDON AVE, FRESNO, CA 93720",36.8363953,-119.7718054,"Fresno County",54.06,"06019005406"
"1035536","BROTHERS MARKET","1025 E MISSION BL, POMONA, CA 91766",34.0557181,-117.7364917,"Los Angeles County",4028.01,"06037402801"
"439755","BROTHERS MARKET","1025 E MISSION BL, POMONA, CA 91766",34.0557181,-117.7364917,"Los Angeles County",4028.01,"06037402801"
"1036023","CVS PHARMACY #10915","1025 E. ADAMS BLVD, LOS ANGELES, CA 90011",34.0192705,-118.2554966,"Los Angeles County",2264.2,"06037226420"
"1016288","D & S GAS FOOD MART","1025 EUCLID, SAN DIEGO, CA 92114",32.7164228,-117.0845806,"San Diego County",30.01,"06073003001"
"1030283","MOMENT INVITATIONS & PRINTING INC.","1025 HARRISON ST, OAKLAND, CA 94607",37.8007182,-122.2693254,"Alameda County",4030,"06001403000"
"1013531","ARCO AM/PM # 29501","1025 KLOKE RD, CALEXICO, CA 92231",32.6786969,-115.5165391,"Imperial County",122,"06025012200"
"1010234","CHEVRON STATION & CAR WASH","1025 N VASCO RD, LIVERMORE, CA 94551",37.7130458,-121.7235733,"Alameda County",4511.01,"06001451101"
"693927","BLUE OVAL FOOD MART","1025 NORD AV, CHICO, CA 95926",39.7313374,-121.8608674,"Butte County",5.01,"06007000501"
"1025776","WINCHESTER SHELL","1025 S WINCHESTER BLVD, SAN JOSE, CA 95128",37.3085,-121.9504895,"Santa Clara County",5063.02,"06085506302"
"1033600","WINCHESTER SHELL","1025 S WINCHESTER BLVD, SAN JOSE, CA 95128",37.3085,-121.9504895,"Santa Clara County",5063.02,"06085506302"
"1023982","USA #63082","1025 W ANAHEIM ST, WILMINGTON, CA 90744",33.7796249,-118.2751079,"Los Angeles County",2943.02,"06037294302"
"1036740","SMOK N SHIP CENTER","1025 W AVENUE I, LANCASTER, CA 93534",34.7044808,-118.1495876,"Los Angeles County",9008.03,"06037900803"
"1011084","ZOO STATION","1025 W BELMONT AVE, FRESNO, CA 93728",36.750046,-119.823802,"Fresno County",20,"06019002000"
"1034148","ZOO LIQUOR & GAS","1025 W BELMONT AVE, FRESNO, CA 93728",36.750046,-119.823802,"Fresno County",20,"06019002000"
"1036006","ZOO LIQUOR & GAS","1025 W BELMONT AVE, FRESNO, CA 93728",36.750046,-119.823802,"Fresno County",20,"06019002000"
"1010498","THE PLACE AT CONSTELLATION SNACKS & GIFT","10250 CONSTELLATION BLVD STE 1, LOS ANGELES, CA 90067",34.0571801,-118.4175088,"Los Angeles County",2679.01,"06037267901"
"1022414","ANGEL DONUTS","10254 ROSECRANS AVE, BELLFLOWER, CA 90706",33.9015932,-118.1145908,"Los Angeles County",5531,"06037553100"
"1034367","BRAND DONUTS","10254 ROSECRANS AVE, BELLFLOWER, CA 90706",33.9015932,-118.1145908,"Los Angeles County",5531,"06037553100"
"1029373","USA DONUTS & CROISSANT","10255 COLIMA RD  STE A, WHITTIER, CA 90603",33.9420711,-118.0123422,"Los Angeles County",5033.02,"06037503302"
"1031252","CIRCLE K #5019","10255 MISSION BL, RIVERSIDE, CA 92509",34.0172238,-117.5050339,"Riverside County",405.02,"06065040502"
"688965","SCANDIA LIQUOR & DELI","10257 TELEPHONE RD, VENTURA, CA 93004",34.2779076,-119.1619154,"Ventura County",13.01,"06111001301"
"1023728","KHASIDA","10259 N SEPULVEDA, MISSION HILLS, CA 91345",34.2750087,-118.4680494,"Los Angeles County",1091,"06037109100"
"1023653","TOPANGA CANYON ARCO","10259 TOPANGA CANYON BLVD, CHATSWORTH, CA 91311",34.2566075,-118.6060753,"Los Angeles County",1132.13,"06037113213"
"691187","SAFEWAY 02-2605","1026 HUNT AV, SAINT HELENA, CA 94574",38.5059143,-122.4680096,"Napa County",2016.02,"06055201602"
"1018518","THE MAHARLIKA ASIAN STORE","1026 N DAVIS RD, SALINAS, CA 93907",36.6951554,-121.6684486,"Monterey County",18.02,"06053001802"
"1023196","DAVN GAS","10260 SEPULVEDA, MISSION HILLS, CA 91345",34.2570231,-118.4668845,"Los Angeles County",1096.03,"06037109603"
"603147","STAR LIQUOR","10264 E ROSECRANS AV, BELLFLOWER, CA 90706",33.9015629,-118.1142802,"Los Angeles County",5531,"06037553100"
"1032886","STAR LIQUOR","10264 E ROSECRANS AVE, BELLFLOWER, CA 90706",33.9015629,-118.1142802,"Los Angeles County",5531,"06037553100"
"1029943","FAST STOP","10264 FOOTHILL BLVD, LAKE VIEW TERRACE, CA 91342",34.2733906,-118.3531348,"Los Angeles County",1032,"06037103200"
"1034443","SUPER 99 CENT OUTLET","1027 E AMAR RD, WEST COVINA, CA 91792",34.036418,-117.924622,"Los Angeles County",4079,"06037407900"
"1028202","CONSERV FUEL  #879","1027 E STOWELL RD, SANTA MARIA, CA 93454",34.9387116,-120.4197773,"Santa Barbara County",21.02,"06083002102"
"1029452","JOOS MARKET","1027 W HOLT AVE, POMONA, CA 91768",34.0621956,-117.7674682,"Los Angeles County",4023.04,"06037402304"
"1017633","LIQUOR PARADISE","10277 FOOTHILL BL, RANCHO CUCAMONGA, CA 91730",34.1061708,-117.580851,"San Bernardino County",21.07,"06071002107"
"1029678","TRUCKEE SHELL","10278 HIGHWAY 89 SOUTH, TRUCKEE, CA 96162",39.3216196,-120.2084532,"Nevada County",12.04,"06057001204"
"1034710","5 STAR TOBACCO","1028 N  NORMA ST, RIDGECREST, CA 93555",35.639847,-117.678346,"Kern County",54.01,"06029005401"
"596867","GLENDALE MOBIL","1028 S BRAND BLVD, GLENDALE, CA 91204",34.1338731,-118.2544275,"Los Angeles County",3025.04,"06037302504"
"587782","THE VILLAGER","1028-1032 E LAKE AV, WATSONVILLE, CA 95076",36.9249722,-121.7451288,"Santa Cruz County",1101,"06087110100"
"1014205","VALLI GAS & CAR WASH","1029 ACADEMY AVE, SANGER, CA 93657",36.7016053,-119.5552942,"Fresno County",61,"06019006100"
"1012158","STARLITE LIQUOR","1029 N AZUSA AV, COVINA, CA 91722",34.0978053,-117.9081416,"Los Angeles County",4057.02,"06037405702"
"695629","CHEVRON #1756","10291 FAIRWAY DR, ROSEVILLE, CA 95678",38.7889213,-121.2827061,"Placer County",228,"06061022800"
"1027994","AMBASSADOR MARKET","10295 MILLS AV, MONTCLAIR, CA 91763",34.0671772,-117.7161582,"San Bernardino County",2.07,"06071000207"
"1035627","AMBASSADOR MARKET","10295 MILLS AV, MONTCLAIR, CA 91763",34.0671772,-117.7161582,"San Bernardino County",2.07,"06071000207"
"665635","KWIK STOP LIQUOR","10298 CENTRAL AV, MONTCLAIR, CA 91763",34.0670233,-117.6904396,"San Bernardino County",2.08,"06071000208"
"1007362","UNITED PETROLEUM","10299 FOLSOM BL, RANCHO CORDOVA, CA 95670",38.5868264,-121.3083476,"Sacramento County",89.1,"06067008910"
"1022447","MARKET AT THE RANCH","10299 SCRIPPS TRL #A, SAN DIEGO, CA 92131",32.9125404,-117.0793597,"San Diego County",170.47,"06073017047"
"690743","SAFEWAY 02-1883","103 AMERICAN CANYON RD, AMERICAN CANYON, CA 94503",38.1646289,-122.2550007,"Napa County",2010.07,"06055201007"
"1015609","7-ELEVEN 2174-34170","103 BROOKHURST ST, ANAHEIM, CA 92801",33.8326454,-117.959056,"Orange County",871.01,"06059087101"
"1030177","SUPERSTAR MARKET","103 E 12TH ST, MARYSVILLE, CA 95901",39.1490163,-121.5822849,"Yuba County",402,"06115040200"
"1004866","GENE'S MARKET & LIQUOR","103 E 9TH ST, SAN BERNARDINO, CA 92410",34.1156349,-117.28492,"San Bernardino County",58,"06071005800"
"1024126","SIERRA FOODS - GLENDORA","103 E.  ALOSTA AVE, GLENDORA, CA 91740",34.1291907,-117.8641893,"Los Angeles County",4011.02,"06037401102"
"689781","MENDOZA MARKET","103 EL CAMINO REAL, GREENFIELD, CA 93927",36.3193608,-121.2426164,"Monterey County",112.03,"06053011203"
"1004692","WINSTON LIQUORS","103 HICKEY BL, SOUTH SAN FRANCISCO, CA 94080",37.6512621,-122.4813641,"San Mateo County",6029,"06081602900"
"461455","JUG'N ROSE LIQUOR","103 N 10TH ST, TAFT, CA 93268",35.1511796,-119.4651451,"Kern County",35,"06029003500"
"1021723","GOLDEN LIQUOR STORE","103 N LINCOLN AVE, MONTEREY PARK, CA 91754",34.0634045,-118.121324,"Los Angeles County",4817.11,"06037481711"
"372041","7-ELEVEN 2172-26615","103 S HARBOR BL, SANTA ANA, CA 92704",33.7449421,-117.9191592,"Orange County",992.49,"06059099249"
"1028844","SANTRAM TOBACCO","103 W ROUTE 66 #F, GLENDORA, CA 91740",34.1291907,-117.8641893,"Los Angeles County",4011.02,"06037401102"
"355582","7-ELEVEN 2131-16498","103 WORTHINGTON ST, SPRING VALLEY, CA 91977",32.697796,-117.0182677,"San Diego County",31.08,"06073003108"
"1022506","7-ELEVEN 2112-35029","1030 6TH ST STE 1-4, COACHELLA, CA 92236",33.6756101,-116.1811351,"Riverside County",457.07,"06065045707"
"1017318","CVS PHARMACY #9784","1030 COLORADO BLVD, LOS ANGELES, CA 90041",34.1372942,-118.1888265,"Los Angeles County",1810,"06037181000"
"1032207","FOOD 4 LESS #769","1030 E ALISAL ST, SALINAS, CA 93905",36.671457,-121.6259875,"Monterey County",9,"06053000900"
"229224","7-ELEVEN 2112-22894","1030 N BROADWAY, ESCONDIDO, CA 92026",33.1342373,-117.0864876,"San Diego County",201.08,"06073020108"
"692504","MADERA MOBIL","1030 N GATEWAY DR, MADERA, CA 93637",36.974324,-120.0747117,"Madera County",6.02,"06039000602"
"1014128","MADERA SELF SERVICE","1030 N LAKE AV, MADERA, CA 93638",36.9740759,-120.056578,"Madera County",6.02,"06039000602"
"417469","CIRCLE K 8606","1030 OAK ST, BAKERSFIELD, CA 93304",35.3674133,-119.038419,"Kern County",19.01,"06029001901"
"1025870","CVS PHARMACY #3862","1030 PLEASANT GROVE BL, ROSEVILLE, CA 95678",38.7783381,-121.2901126,"Placer County",210.34,"06061021034"
"1031532","HACIENDA MOBIL","1030 S HACIENDA BLVD, LA PUENTE, CA 91744",34.0110256,-117.9624015,"Los Angeles County",4085.01,"06037408501"
"691082","QUIK STOP #2076","1030 S OLIVE AV, STOCKTON, CA 95215",37.9542689,-121.235207,"San Joaquin County",27.01,"06077002701"
"1031555","KEG N BOTTLE LA JOLLA","1030 TORRY PINES RD, LA JOLLA, CA 92037",32.8428533,-117.2724498,"San Diego County",82,"06073008200"
"476628","RALPHS GROCERY #051","1030 UNIVERSITY AV, SAN DIEGO, CA 92103",32.7494067,-117.1531407,"San Diego County",6,"06073000600"
"1015636","FASTRIP","10301 MAIN ST, LAMONT, CA 93241",35.2617766,-118.9140728,"Kern County",64.01,"06029006401"
"1029463","PRINCE LIQUOR MARKET","10301 S MAIN ST, LOS ANGELES, CA 90003",33.9427409,-118.2741002,"Los Angeles County",2405,"06037240500"
"1036082","PRINCE LIQUOR MARKET #2","10301 S MAIN ST, LOS ANGELES, CA 90003",33.9427409,-118.2741002,"Los Angeles County",2405,"06037240500"
"1021494","MIMI'S DONUTS","10303 LAKEWOOD BL, DOWNEY, CA 90241",33.9463442,-118.1184777,"Los Angeles County",5509.02,"06037550902"
"1020614","CRYSTAL SPRING WATER","10304 LOWER AZUSA RD, EL MONTE, CA 91731",34.09166,-118.0423904,"Los Angeles County",4321.01,"06037432101"
"1034137","CRYSTAL SPRING WATER","10304 LOWER AZUSA RD, EL MONTE, CA 91731",34.09166,-118.0423904,"Los Angeles County",4321.01,"06037432101"
"1035947","CRYSTAL SPRING WATER","10304 LOWER AZUSA RD, EL MONTE, CA 91731",34.09166,-118.0423904,"Los Angeles County",4321.01,"06037432101"
"1020761","FASTRIP FOOD STORE #339","10306 ARLINGTON AVE, RIVERSIDE, CA 92505",33.9461646,-117.4781671,"Riverside County",411.02,"06065041102"
"1035587","FASTRIP FOOD STORE","10306 ARLINGTON AVE, RIVERSIDE, CA 92505",33.9461646,-117.4781671,"Riverside County",411.02,"06065041102"
"1032696","DONUT TOWN & WATER STORE","10306 WILMINGTON AVE #B, LOS ANGELES, CA 90002",33.9429369,-118.2386997,"Los Angeles County",2430,"06037243000"
"1020346","LUIS MEAT MARKET","10308 ARTESIA BLVD, BELLFLOWER, CA 90706",33.8726707,-118.1146011,"Los Angeles County",5544.06,"06037554406"
"1006862","MIDTOWN GAS & FOOD MART","1031 30TH  STREET, SACRAMENTO, CA 95816",38.5722793,-121.4665958,"Sacramento County",14,"06067001400"
"496355","MIKE & KEN'S DELI","1031 AIRPORT BL, SOUTH SAN FRANCISCO, CA 94080",37.6630589,-122.4015206,"San Mateo County",6021,"06081602100"
"1027547","3 BROTHERS LIQUOR","1031 BROADWAY, EL CAJON, CA 92021",32.8072816,-116.9467865,"San Diego County",163.02,"06073016302"
"1009939","LION MARKET","1031 E CAPITOL EXPY, SAN JOSE, CA 95121",37.3005629,-121.824023,"Santa Clara County",5032.12,"06085503212"
"1030788","JMJ MARKET","1031 E TRUXTUN AVE, BAKERSFIELD, CA 93305",35.3729346,-118.9877924,"Kern County",15,"06029001500"
"1031534","7-ELEVEN 2367-39747","1031 LEIGH AVE, SAN JOSE, CA 95126",37.3058928,-121.9219213,"Santa Clara County",5022.01,"06085502201"
"1036314","SAM'S DONUTS","1031 PETALUMA HILL RD, SANTA ROSA, CA 95404",38.4279041,-122.7107652,"Sonoma County",1514.02,"06097151402"
"1012353","CIGARETTES CHEAPER","1031 SUTTON WAY, GRASS VALLEY, CA 95945",39.236727,-121.0326894,"Nevada County",6,"06057000600"
"1024949","DOWNEY SMOKE SHOP","10313 LAKEWOOD BLVD, DOWNEY, CA 90241",33.9457872,-118.1182872,"Los Angeles County",5509.02,"06037550902"
"1036322","DOWNEY SMOKE AND VAPE SHOP","10313 LAKEWOOD BLVD, DOWNEY, CA 90241",33.9457872,-118.1182872,"Los Angeles County",5509.02,"06037550902"
"688049","WINES & SPIRITS OF THE WORLD","10318 RESEDA, NORTHRIDGE, CA 91326",34.2579647,-118.5356791,"Los Angeles County",1112.06,"06037111206"
"1030210","HONG KONG FASHIONS","1032 STOCKTON ST, SAN FRANCISCO, CA 94108",37.795379,-122.408046,"San Francisco County",611,"06075061100"
"1013979","DONUTS TYME","10320 ARLINGTON AVE, RIVERSIDE, CA 92505",33.9461656,-117.4783997,"Riverside County",411.02,"06065041102"
"1036003","DONUTS TYME","10320 ARLINGTON AVE, RIVERSIDE, CA 92505",33.9461656,-117.4783997,"Riverside County",411.02,"06065041102"
"677768","JERRY'S LIQUOR","10320 WESTMINSTER AV, GARDEN GROVE, CA 92843",33.7592814,-117.9501693,"Orange County",889.03,"06059088903"
"1033077","TOBACCO CRUSH","10321 MAGNOLIA AVE, RIVERSIDE, CA 92505",33.9131771,-117.4629883,"Riverside County",414.07,"06065041407"
"1033634","TOBACCO CRUSH","10321 MAGNOLIA AVE, RIVERSIDE, CA 92505",33.9131771,-117.4629883,"Riverside County",414.07,"06065041407"
"117575","VONS GROCERY 44-3161","10321 SEPULVEDA BLVD, MISSION HILLS, CA 91345",34.2579827,-118.4704295,"Los Angeles County",1096.04,"06037109604"
"683480","7-ELEVEN 2133-32696","10325 ZELZAH, NORTHRIDGE, CA 91326",34.258017,-118.5236712,"Los Angeles County",1113.01,"06037111301"
"1006986","MEADOWS DELI MARKET","10326 MEADOW GLEN WAY E, ESCONDIDO, CA 92026",33.2160922,-117.1092611,"San Diego County",191.05,"06073019105"
"491896","SUNNY'S MARKET","1033 ALPINE ST, LOS ANGELES, CA 90012",34.0656702,-118.2470997,"Los Angeles County",1977,"06037197700"
"1013304","ARVIN DOLLAR MART & MARKET","1033 BEAR MOUNTAIN BL, ARVIN, CA 93203",35.2087292,-118.836342,"Kern County",63.03,"06029006303"
"687663","ROLANDA MARKET","1033 ELKELTON BL, SPRING VALLEY, CA 91977",32.7134561,-117.0165322,"San Diego County",31.08,"06073003108"
"695338","SUPERIOR SUPER WAREHOUSE #117","1033 LONG BEACH BL, LONG BEACH, CA 90813",33.7800039,-118.1900043,"Los Angeles County",5763.01,"06037576301"
"1003783","VANCO TRUCK & AUTO PLAZA","1033 W CHARTER WAY, STOCKTON, CA 95206",37.93644,-121.301698,"San Joaquin County",8.01,"06077000801"
"1019173","JIN'S SHELL SERVICE","10332 CULVER BL, CULVER CITY, CA 90230",34.0165845,-118.3997395,"Los Angeles County",7025.01,"06037702501"
"680934","CORNER LIQUOR","10336 LOWER AZUSA RD, EL MONTE, CA 91731",34.091552,-118.041342,"Los Angeles County",4323,"06037432300"
"1014657","LUCKY 7 FOOD MARKET","10337 TELEPHONE RD, VENTURA, CA 93004",34.278601,-119.161,"Ventura County",13.01,"06111001301"
"688287","TOBACCO RD INC","1034 EL CAMINO REAL, REDWOOD CITY, CA 94063",37.4839405,-122.2326496,"San Mateo County",6109,"06081610900"
"1023602","QUALITY MARKET #3","1034 N PATT ST, ANAHEIM, CA 92805",33.8485173,-117.9152341,"Orange County",865.02,"06059086502"
"1026902","MOBIL GAS STATION","10340 ROSECRANS AVE, BELLFLOWER, CA 90706",33.9016579,-118.1127069,"Los Angeles County",5531,"06037553100"
"1035336","HIMALAYAN GROCERY","10340 SAN PABLO AVE, EL CERRITO, CA 94530",37.9069167,-122.3051631,"Contra Costa County",3880,"06013388000"
"688167","DIGITAL VIDEO","10341 GARVEY AV, SOUTH EL MONTE, CA 91733",34.0632542,-118.0453584,"Los Angeles County",4332,"06037433200"
"1024711","LA MEXICANA MARKET","10341 LONG BEACH BLVD, LYNWOOD, CA 90262",33.9409088,-118.2150231,"Los Angeles County",5402.01,"06037540201"
"1029247","MOUNTAIN VIEW SHELL","10342 MOUNTAIN VIEW AVE, LOMA LINDA, CA 92354",34.065938,-117.244145,"San Bernardino County",72,"06071007200"
"563215","OXNARD SHORES BOTTLE SHOP","1035 HARBOR BL, OXNARD, CA 93035",34.1908632,-119.2393435,"Ventura County",36.09,"06111003609"
"1028297","MI KUIK STOP","1035 PARK AVE, SAN JOSE, CA 95126",37.3264112,-121.9095403,"Santa Clara County",5003,"06085500300"
"1024588","7-ELEVEN 2171-39632","1035 S MT. VERNON AVE STE J &, COLTON, CA 92324",34.0869896,-117.3132577,"San Bernardino County",124,"06071012400"
"687681","SAVE MART #082","1035 SPERRY RD, PATTERSON, CA 95363",37.465494,-121.142713,"Stanislaus County",32.02,"06099003202"
"1006176","MOUNTAIN MARKET LIQUOR","1035 W PHILADELPHIA ST, ONTARIO, CA 91762",34.032923,-117.6689164,"San Bernardino County",6.03,"06071000603"
"1026021","CVS PHARMACY #9154","10350 FRIARS RD, SAN DIEGO, CA 92120",32.7922325,-117.0999778,"San Diego County",95.09,"06073009509"
"1030349","ESTRALLA'S MARKET & TAQUERIA","10351 OLD REDWOOD HWY, WINDSOR, CA 95492",38.5626265,-122.8258031,"Sonoma County",1538.08,"06097153808"
"371915","7-ELEVEN 2173-21479","10356 VENICE BL, CULVER CITY, CA 90232",34.0201357,-118.4034322,"Los Angeles County",2699.05,"06037269905"
"1027179","CVS PHARMACY #9235","1036 CASITAS PASS RD, CARPINTERIA, CA 93013",34.3951247,-119.5115179,"Santa Barbara County",16.04,"06083001604"
"1002033","BOYETT PETROLEUM #25","1036 FEATHER DR, COPPEROPOLIS, CA 95228",37.9395256,-120.6078553,"Calaveras County",1.2,"06009000120"
"1029398","CROWN OIL USA #796","1036 IMPERIAL AV, CALEXICO, CA 92231",32.6786171,-115.4982324,"Imperial County",121,"06025012100"
"686322","PORTOLA FOOD & LIQUORS","1037 E AIRWAY BL, LIVERMORE, CA 94550",37.6963189,-121.7858218,"Alameda County",4513,"06001451300"
"1026204","DOWNTOWN TOBACCO & GIFT","1037 N CENTRAL AVE, TRACY, CA 95376",37.7392574,-121.4262125,"San Joaquin County",54.06,"06077005406"
"1009659","GOLD COIN MINI MART","1037 OAKDALE RD #B, MODESTO, CA 95355",37.657525,-120.957953,"Stanislaus County",10.01,"06099001001"
"1004579","ARCO ANAHEIM RESORT CENTER","1037 W BALL RD, ANAHEIM, CA 92802",33.818453,-117.9227559,"Orange County",871.06,"06059087106"
"1013288","CATALINA MARKET","1037 W TORRANCE BL, TORRANCE, CA 90502",33.8420241,-118.2899637,"Los Angeles County",5435.03,"06037543503"
"187515","STATER BROS 079","10370 ARLINGTON AV, RIVERSIDE, CA 92505",33.9461503,-117.4794944,"Riverside County",411.02,"06065041102"
"690301","CHERRY VALLEY MARKET","10376 BEAUMONT AV, BEAUMONT, CA 92223",33.9473522,-116.9771591,"Riverside County",438.07,"06065043807"
"628093","ALLEN'S DONUTS","10377 FOLSOM BL, RANCHO CORDOVA, CA 95670",38.58853,-121.3042929,"Sacramento County",89.1,"06067008910"
"672280","MAIN STREET MOBIL","1038 E MAIN ST, SANTA MARIA, CA 93454",34.9526746,-120.4185094,"Santa Barbara County",21.01,"06083002101"
"1002826","SAN PABLO DISCOUNT CIGARETTES","10382 SAN PABLO AVENUE, EL CERRITO, CA 94530",37.9075901,-122.3054912,"Contra Costa County",3880,"06013388000"
"1034507","VIVA SUPERMARKET","10385 FOLSOM BLVD, RANCHO CORDOVA, CA 95670",38.5890825,-121.3060624,"Sacramento County",89.1,"06067008910"
"1013112","NEIGHBORHOOD GROCERY","10386 S HIGHWAY 59, EL NIDO, CA 95317",37.1360059,-120.4920377,"Merced County",9.01,"06047000901"
"1003349","CENTURY CITY 76","10389 SANTA MONICA BL, LOS ANGELES, CA 90025",34.05766,-118.4239768,"Los Angeles County",2671,"06037267100"
"1032833","SUGARY DONUTS","1039 EAST AVE. J, LANCASTER, CA 93535",34.7626644,-118.113073,"Los Angeles County",9003,"06037900300"
"1033458","SUGAR E DONUTS","1039 EAST AVE. J, LANCASTER, CA 93535",34.7626644,-118.113073,"Los Angeles County",9003,"06037900300"
"1026216","CVS PHARMACY #9329","1039 EL CAMINO REAL, REDWOOD CITY, CA 94063",37.4852101,-122.2313494,"San Mateo County",6102.02,"06081610202"
"1014973","TEXAS LIQUOR","1039 HARBISON, NATIONAL CITY, CA 91950",32.6823441,-117.0740791,"San Diego County",120.02,"06073012002"
"1028527","CLOCK TOWN SMOKE SHOP","1039 HIGH ST, STE 11, AUBURN, CA 95603",38.8999987,-121.0694018,"Placer County",204.01,"06061020401"
"1035696","CLOCK TOWN SMOKE SHOP","1039 HIGH ST, STE 11, AUBURN, CA 95603",38.8999987,-121.0694018,"Placer County",204.01,"06061020401"
"636746","7-ELEVEN 2366-27244","1039 SUNNYVALE SARATOGA, SUNNYVALE, CA 94087",37.3585613,-122.032932,"Santa Clara County",5084.03,"06085508403"
"129464","BEL AIR MARKET 509","1039 SUNRISE AV, ROSEVILLE, CA 95661",38.7286978,-121.270821,"Placer County",207.14,"06061020714"
"1022011","CORNERSTONE MARKET","10392 AVE 416, DINUBA, CA 93618",36.5457242,-119.3409879,"Tulare County",3.01,"06107000301"
"1033276","RAINBOW DONUTS & ICE CREAM","10397 S LONG BEACH BLVD, LYNWOOD, CA 90262",33.9395203,-118.2147308,"Los Angeles County",5402.01,"06037540201"
"1036482","RAINBOW DONUTS & ICE CREAM","10397 S LONG BEACH BLVD, LYNWOOD, CA 90262",33.9395203,-118.2147308,"Los Angeles County",5402.01,"06037540201"
"1006865","ALMOND TREE MARKET","104 CECIL AVE, DELANO, CA 93215",35.775671,-119.2581808,"Kern County",48,"06029004800"
"1009242","JAMIE'S DELI MARKET","104 E ALONDRA BL, GARDENA, CA 90248",33.8854974,-118.2755186,"Los Angeles County",5410.02,"06037541002"
"1033931","TONYS MARKET","104 E AVE 40, LOS ANGELES, CA 90031",34.0918048,-118.210387,"Los Angeles County",1994,"06037199400"
"1006298","GOLDEN DONUT PLACE","104 E FOOTHILL BL, ARCADIA, CA 91006",34.1506245,-118.0281461,"Los Angeles County",4304,"06037430400"
"522051","PODESTO'S","104 LINCOLN CTR, STOCKTON, CA 95207",38.0115912,-121.3214966,"San Joaquin County",31.1,"06077003110"
"183008","SAFEWAY 12-0706","104 MID VALLEY CTR, CARMEL, CA 93923",36.522448,-121.8101835,"Monterey County",116.02,"06053011602"
"1008806","LAGUNA MOBIL OIL","104 N PACIFIC CST HWY, LAGUNA BEACH, CA 92651",33.542856,-117.7856773,"Orange County",626.05,"06059062605"
"1005122","7-ELEVEN 2112-33571","104 N SAN JACINTO, HEMET, CA 92543",33.7479328,-116.9582745,"Riverside County",433.09,"06065043309"
"1012357","CHEERLITRE LIQUORS","104 S DEMPSEY RD, MILPITAS, CA 95035",37.433181,-121.8855856,"Santa Clara County",5044.18,"06085504418"
"1032559","DONUT HOUSE","104 W ANAHEIM ST, STE D, WILMINGTON, CA 90744",33.7796763,-118.262692,"Los Angeles County",2948.2,"06037294820"
"1036982","THE DONUT HOUSE","104 W ANAHEIM ST, WILMINGTON, CA 90744",33.7796773,-118.2648605,"Los Angeles County",2948.2,"06037294820"
"1029393","CROWN OIL USA #791","104 W MAIN ST, BRAWLEY, CA 92227",32.9781816,-115.5420777,"Imperial County",106,"06025010600"
"1035566","SAN YSIDRO CHEVRON","104 W SAN YSIDRO BLVD, SAN YSIDRO, CA 92173",32.5519912,-117.0442138,"San Diego County",100.13,"06073010013"
"687877","VONS GROCERY 41-2101","1040 COAST VILLAGE RD, MONTECITO, CA 93108",34.4225335,-119.6514388,"Santa Barbara County",14.02,"06083001402"
"1029571","CIGARETTE STORE #2","1040 E AVE J, LANCASTER, CA 93535",34.6968516,-118.1111057,"Los Angeles County",9006.08,"06037900608"
"684440","STATER BROS 129","1040 E BASTANCHURY RD, FULLERTON, CA 92835",33.8983799,-117.91118,"Orange County",16.01,"06059001601"
"1032561","JOHNS LIQUORS","1040 E MONTE VISTA AV, VACAVILLE, CA 95688",38.3590684,-121.9787195,"Solano County",2531.01,"06095253101"
"1021032","DICKS VALERO","1040 EL CAMINO REAL NORTH, PRUNEDALE, CA 93907",36.792018,-121.6666937,"Monterey County",105.01,"06053010501"
"168758","RALEY'S #127","1040 EMERALD BAY RD, SOUTH LAKE TAHOE, CA 96150",38.9120179,-120.0052371,"El Dorado County",304.02,"06017030402"
"1035045","FOSTERS DONUTS","1040 KERN ST, TAFT, CA 93268",35.1462621,-119.4658305,"Kern County",35,"06029003500"
"1013234","LIQUOR & TOBACCO","1040 N RENGSTORFF AVE #A2, MOUNTAIN VIEW, CA 94043",37.4192525,-122.0954169,"Santa Clara County",5093.04,"06085509304"
"1025718","MARKET CORNER","1040 PARK BLVD, SAN DIEGO, CA 92101",32.7161671,-117.1540021,"San Diego County",52,"06073005200"
"682254","7-ELEVEN 2369-29507","1040 PIEDMONT RD, SAN JOSE, CA 95132",37.3924464,-121.8427894,"Santa Clara County",5043.08,"06085504308"
"1008330","COAST HWY LAUNDROMAT","1040 S COAST HWY, LAGUNA BEACH, CA 92651",33.5347437,-117.7771903,"Orange County",626.19,"06059062619"
"1034172","LAGUNA LAUNDRY & DRY CLEANER","1040 S COAST HWY, LAGUNA BEACH, CA 92651",33.5347437,-117.7771903,"Orange County",626.19,"06059062619"
"1017707","GATEWAY SHELL","1040 S GATEWAY DR, MADERA, CA 93637",36.9520899,-120.0511797,"Madera County",8,"06039000800"
"1035720","ARCO CMSI #3583","1040 SUNNYVALE SARATOGA RD, SUNNYVALE, CA 94087",37.3586578,-122.0318173,"Santa Clara County",5085.03,"06085508503"
"1036844","ARCO AM/PM #7084","1040 SUNNYVALE SARATOGA RD, SUNNYVALE, CA 94087",37.3586578,-122.0318173,"Santa Clara County",5085.03,"06085508503"
"1009972","DT AUTO SERVICE","1040 SUNNYVALE-SARATOGA RD, SUNNYVALE, CA 94087",37.3586578,-122.0318173,"Santa Clara County",5085.03,"06085508503"
"642080","CORK AND CAN LIQUOR","1040 W 4TH ST, ONTARIO, CA 91762",34.0778716,-117.6689074,"San Bernardino County",11.04,"06071001104"
"1001983","LAKER'S LIQUOR","1040 W IMPERIAL HWY, LOS ANGELES, CA 90044",33.930751,-118.2934107,"Los Angeles County",6028.01,"06037602801"
"1007280","ALONDRA LIQUOR","10400 ALONDRA BL, BELLFLOWER, CA 90706",33.8884017,-118.1136632,"Los Angeles County",5531,"06037553100"
"1029618","HAN'S MARKET","10400 CALIFORNIA AVE, SOUTH GATE, CA 90280",33.9389931,-118.2079707,"Los Angeles County",5358.02,"06037535802"
"1031754","TOMATO MARKET","10400 S PRAIRIE AVE, INGLEWOOD, CA 90303",33.9416733,-118.3436022,"Los Angeles County",6019,"06037601900"
"1030133","JJ FOOD & LIQUOR","10401 FOLSOM BLVD #A, RANCHO CORDOVA, CA 95670",38.5898145,-121.3027016,"Sacramento County",89.05,"06067008905"
"1008557","PROVIDEO 99 CENT","10401 TABOR ST, LOS ANGELES, CA 90034",34.0249362,-118.4076827,"Los Angeles County",2699.04,"06037269904"
"1024776","LA PLACITA MARKET","10402 LAUREL CYN BL, PACOIMA, CA 91331",34.2591612,-118.4321494,"Los Angeles County",1044.04,"06037104404"
"246720","COUNTY FAIR MKT INC","10405 MAIN ST, LAMONT, CA 93241",35.260592,-118.913761,"Kern County",64.01,"06029006401"
"1028941","ROSARITO MARKET","10406 S FIGUEROA ST, LOS ANGELES, CA 90003",33.9416185,-118.2823328,"Los Angeles County",2412.01,"06037241201"
"1034326","ROSARITO MARKET","10406 S FIGUEROA ST, LOS ANGELES, CA 90003",33.9416185,-118.2823328,"Los Angeles County",2412.01,"06037241201"
"1026177","CVS PHARMACY #9346","1041 EL MONTE AV, MOUNTAIN VIEW, CA 94040",37.3900289,-122.0945746,"Santa Clara County",5098.01,"06085509801"
"1014886","BIG FAMILY 99 CENTS","1041 S PRAIRIE AVE STE 14, INGLEWOOD, CA 90301",33.9496959,-118.3439288,"Los Angeles County",6011,"06037601100"
"1033195","SPLITARILLOS TOBACCO OUTLET","1041 S PRAIRIE AVE STE 9, INGLEWOOD, CA 90301",33.9496959,-118.3439288,"Los Angeles County",6011,"06037601100"
"251360","LOUIE KEE MARKET","1041 TULARE ST, FRESNO, CA 93706",36.727495,-119.7994844,"Fresno County",3,"06019000300"
"1023086","LIQUOR JUNCTION","1041 W BIG BEAR BL, BIG BEAR CITY, CA 92314",34.2607029,-116.8639743,"San Bernardino County",114.01,"06071011401"
"1033940","ARMAG PETRO INC","1041 W KENNETH RD, GLENDALE, CA 91202",34.1727228,-118.2788156,"Los Angeles County",3013,"06037301300"
"1024483","VILLAGE LIQUOR","10410 ARLINGTON AV, RIVERSIDE, CA 92505",33.946472,-117.4812087,"Riverside County",411.02,"06065041102"
"1009925","BEST MARKET","10410 RAMONA AVE, MONTCLAIR, CA 91763",34.0647764,-117.7075628,"San Bernardino County",3.01,"06071000301"
"686075","ALTA DENA EXPRESS","10411 S PRAIRIE AV, INGLEWOOD, CA 90303",33.9415781,-118.3442618,"Los Angeles County",6018.02,"06037601802"
"1034748","EL RANCHO MARKET","10412 HAWTHORNE BLVD, LENNOX, CA 90304",33.9413634,-118.3522979,"Los Angeles County",6018.02,"06037601802"
"1022809","HAY TONE'S HANGOUT","10413 FRANKLIN BL, ELK GROVE, CA 95757",38.3787083,-121.4542424,"Sacramento County",96.38,"06067009638"
